%time,field.header.seq,field.header.stamp,field.header.frame_id,field.status.status,field.status.service,field.latitude,field.longitude,field.altitude,field.position_covariance0,field.position_covariance1,field.position_covariance2,field.position_covariance3,field.position_covariance4,field.position_covariance5,field.position_covariance6,field.position_covariance7,field.position_covariance8,field.position_covariance_type
1638862082000000000,242,1638862082000000000,gnss0,0,7,30.529334457263335,114.35656029547145,38.558000564575195,9.999999747378752e-05,0.0,0.0,0.0,9.999999747378752e-05,0.0,0.0,0.0,0.0009000000427477062,2
1638862083000000000,243,1638862083000000000,gnss0,0,7,30.52933446226333,114.35656018713811,38.56500053405762,9.999999747378752e-05,0.0,0.0,0.0,9.999999747378752e-05,0.0,0.0,0.0,0.0009000000427477062,2
1638862084000000000,244,1638862084000000000,gnss0,0,7,30.529334457263335,114.35656022047147,38.55999946594238,9.999999747378752e-05,0.0,0.0,0.0,9.999999747378752e-05,0.0,0.0,0.0,0.0009000000427477062,2
1638862085000000000,245,1638862085000000000,gnss0,0,7,30.529334428929992,114.35656016713814,38.57099914550781,9.999999747378752e-05,0.0,0.0,0.0,9.999999747378752e-05,0.0,0.0,0.0,0.0009000000427477062,2
1638862086000000000,246,1638862086000000000,gnss0,0,7,30.52933449893,114.35656022547147,38.56500053405762,9.999999747378752e-05,0.0,0.0,0.0,9.999999747378752e-05,0.0,0.0,0.0,0.0009000000427477062,2
1638862087000000000,247,1638862087000000000,gnss0,0,7,30.529334488929994,114.35656016880479,38.56399917602539,9.999999747378752e-05,0.0,0.0,0.0,9.999999747378752e-05,0.0,0.0,0.0,0.0009000000427477062,2
1638862088000000000,248,1638862088000000000,gnss0,0,7,30.52933449393,114.35656017213812,38.55500030517578,9.999999747378752e-05,0.0,0.0,0.0,9.999999747378752e-05,0.0,0.0,0.0,0.0009000000427477062,2
1638862089000000000,249,1638862089000000000,gnss0,0,7,30.52933446726333,114.35656025880478,38.582000732421875,9.999999747378752e-05,0.0,0.0,0.0,9.999999747378752e-05,0.0,0.0,0.0,0.0009000000427477062,2
1638862090000000000,250,1638862090000000000,gnss0,0,7,30.529334452263335,114.35656018547144,38.5629997253418,9.999999747378752e-05,0.0,0.0,0.0,9.999999747378752e-05,0.0,0.0,0.0,0.0009000000427477062,2
1638862091000000000,251,1638862091000000000,gnss0,0,7,30.529334483929993,114.35656017547144,38.55500030517578,9.999999747378752e-05,0.0,0.0,0.0,9.999999747378752e-05,0.0,0.0,0.0,0.0009000000427477062,2
1638862092000000000,252,1638862092000000000,gnss0,0,7,30.529334503930002,114.35656016547146,38.558000564575195,9.999999747378752e-05,0.0,0.0,0.0,9.999999747378752e-05,0.0,0.0,0.0,0.0009000000427477062,2
1638862093000000000,253,1638862093000000000,gnss0,0,7,30.52933446393,114.35656021213812,38.56399917602539,9.999999747378752e-05,0.0,0.0,0.0,9.999999747378752e-05,0.0,0.0,0.0,0.0009000000427477062,2
1638862094000000000,254,1638862094000000000,gnss0,0,7,30.529334485596667,114.35656022380479,38.569000244140625,9.999999747378752e-05,0.0,0.0,0.0,9.999999747378752e-05,0.0,0.0,0.0,0.0009000000427477062,2
1638862095000000000,255,1638862095000000000,gnss0,0,7,30.52933447226333,114.35656019880479,38.566999435424805,9.999999747378752e-05,0.0,0.0,0.0,9.999999747378752e-05,0.0,0.0,0.0,0.0009000000427477062,2
1638862096000000000,256,1638862096000000000,gnss0,0,7,30.529334503930002,114.35656019880479,38.55200004577637,9.999999747378752e-05,0.0,0.0,0.0,9.999999747378752e-05,0.0,0.0,0.0,0.0009000000427477062,2
1638862097000000000,257,1638862097000000000,gnss0,0,7,30.529334470596666,114.35656018380479,38.56599998474121,9.999999747378752e-05,0.0,0.0,0.0,9.999999747378752e-05,0.0,0.0,0.0,0.0009000000427477062,2
1638862098000000000,258,1638862098000000000,gnss0,0,7,30.529334488929994,114.35656016213814,38.558000564575195,9.999999747378752e-05,0.0,0.0,0.0,9.999999747378752e-05,0.0,0.0,0.0,0.0009000000427477062,2
1638862099000000000,259,1638862099000000000,gnss0,0,7,30.529334480596667,114.35656016380479,38.56500053405762,9.999999747378752e-05,0.0,0.0,0.0,9.999999747378752e-05,0.0,0.0,0.0,0.0009000000427477062,2
1638862100000000000,260,1638862100000000000,gnss0,0,7,30.52933448226333,114.35656016547146,38.55900001525879,9.999999747378752e-05,0.0,0.0,0.0,9.999999747378752e-05,0.0,0.0,0.0,0.0009000000427477062,2
1638862101000000000,261,1638862101000000000,gnss0,0,7,30.529334485596667,114.35656016547146,38.56100082397461,9.999999747378752e-05,0.0,0.0,0.0,9.999999747378752e-05,0.0,0.0,0.0,0.0009000000427477062,2
1638862102000000000,262,1638862102000000000,gnss0,0,7,30.52933446226333,114.35656018213811,38.55999946594238,9.999999747378752e-05,0.0,0.0,0.0,9.999999747378752e-05,0.0,0.0,0.0,0.0009000000427477062,2
1638862103000000000,263,1638862103000000000,gnss0,0,7,30.529334460596665,114.35656018880476,38.56599998474121,9.999999747378752e-05,0.0,0.0,0.0,9.999999747378752e-05,0.0,0.0,0.0,0.0009000000427477062,2
1638862104000000000,264,1638862104000000000,gnss0,0,7,30.529334490596668,114.35656017713809,38.566999435424805,9.999999747378752e-05,0.0,0.0,0.0,9.999999747378752e-05,0.0,0.0,0.0,0.0009000000427477062,2
1638862105000000000,265,1638862105000000000,gnss0,0,7,30.52933447393,114.35656014047146,38.5620002746582,9.999999747378752e-05,0.0,0.0,0.0,9.999999747378752e-05,0.0,0.0,0.0,0.0009000000427477062,2
1638862106000000000,266,1638862106000000000,gnss0,0,7,30.529334460596665,114.35656016380479,38.57099914550781,9.999999747378752e-05,0.0,0.0,0.0,9.999999747378752e-05,0.0,0.0,0.0,0.0009000000427477062,2
1638862107000000000,267,1638862107000000000,gnss0,0,7,30.52933448726333,114.3565601971381,38.55900001525879,9.999999747378752e-05,0.0,0.0,0.0,9.999999747378752e-05,0.0,0.0,0.0,0.0009000000427477062,2
1638862108000000000,268,1638862108000000000,gnss0,0,7,30.52933447226333,114.35656017713809,38.55999946594238,9.999999747378752e-05,0.0,0.0,0.0,9.999999747378752e-05,0.0,0.0,0.0,0.0009000000427477062,2
1638862109000000000,269,1638862109000000000,gnss0,0,7,30.52933445893,114.35656019547145,38.56100082397461,9.999999747378752e-05,0.0,0.0,0.0,9.999999747378752e-05,0.0,0.0,0.0,0.0009000000427477062,2
1638862110000000000,270,1638862110000000000,gnss0,0,7,30.529334483929993,114.35656021380477,38.56100082397461,9.999999747378752e-05,0.0,0.0,0.0,9.999999747378752e-05,0.0,0.0,0.0,0.0009000000427477062,2
1638862111000000000,271,1638862111000000000,gnss0,0,7,30.529334470596666,114.35656018713811,38.56500053405762,9.999999747378752e-05,0.0,0.0,0.0,9.999999747378752e-05,0.0,0.0,0.0,0.0009000000427477062,2
1638862112000000000,272,1638862112000000000,gnss0,0,7,30.529334465596666,114.35656020547144,38.566999435424805,9.999999747378752e-05,0.0,0.0,0.0,9.999999747378752e-05,0.0,0.0,0.0,0.0009000000427477062,2
1638862113000000000,273,1638862113000000000,gnss0,0,7,30.52933450226334,114.35656022047147,38.55900001525879,9.999999747378752e-05,0.0,0.0,0.0,9.999999747378752e-05,0.0,0.0,0.0,0.0009000000427477062,2
1638862114000000000,274,1638862114000000000,gnss0,0,7,30.52933446393,114.35656015713813,38.5620002746582,9.999999747378752e-05,0.0,0.0,0.0,9.999999747378752e-05,0.0,0.0,0.0,0.0009000000427477062,2
1638862115000000000,275,1638862115000000000,gnss0,0,7,30.52933448226333,114.35656022547147,38.56100082397461,9.999999747378752e-05,0.0,0.0,0.0,9.999999747378752e-05,0.0,0.0,0.0,0.0009000000427477062,2
1638862116000000000,276,1638862116000000000,gnss0,0,7,30.529334460596665,114.35656047380482,38.55699920654297,9.999999747378752e-05,0.0,0.0,0.0,9.999999747378752e-05,0.0,0.0,0.0,0.0009000000427477062,2
1638862117000000000,277,1638862117000000000,gnss0,0,7,30.529334710596686,114.35656603213853,38.604000091552734,9.999999747378752e-05,0.0,0.0,0.0,9.999999747378752e-05,0.0,0.0,0.0,0.0009000000427477062,2
1638862118000000000,278,1638862118000000000,gnss0,0,7,30.529336148930103,114.35657598713892,38.58300018310547,9.999999747378752e-05,0.0,0.0,0.0,9.999999747378752e-05,0.0,0.0,0.0,0.0009000000427477062,2
1638862119000000000,279,1638862119000000000,gnss0,0,7,30.529336630596816,114.35658645713937,38.61000061035156,9.999999747378752e-05,0.0,0.0,0.0,9.999999747378752e-05,0.0,0.0,0.0,0.0009000000427477062,2
1638862120000000000,280,1638862120000000000,gnss0,0,7,30.529337097263497,114.35659364713979,38.597999572753906,9.999999747378752e-05,0.0,0.0,0.0,9.999999747378752e-05,0.0,0.0,0.0,0.0015999999595806003,2
1638862121000000000,281,1638862121000000000,gnss0,0,7,30.52933683893014,114.35659944047354,38.59199905395508,9.999999747378752e-05,0.0,0.0,0.0,9.999999747378752e-05,0.0,0.0,0.0,0.0015999999595806003,2
1638862122000000000,282,1638862122000000000,gnss0,0,7,30.529336000596757,114.35660795714047,38.638999938964844,9.999999747378752e-05,0.0,0.0,0.0,9.999999747378752e-05,0.0,0.0,0.0,0.0015999999595806003,2
1638862123000000000,283,1638862123000000000,gnss0,0,7,30.529335580596733,114.35661555380766,38.63699913024902,9.999999747378752e-05,0.0,0.0,0.0,9.999999747378752e-05,0.0,0.0,0.0,0.0009000000427477062,2
1638862124000000000,284,1638862124000000000,gnss0,0,7,30.529332717263458,114.35662330214124,38.683000564575195,9.999999747378752e-05,0.0,0.0,0.0,9.999999747378752e-05,0.0,0.0,0.0,0.0009000000427477062,2
1638862125000000000,285,1638862125000000000,gnss0,0,7,30.52932456726294,114.35663279380852,38.64699935913086,9.999999747378752e-05,0.0,0.0,0.0,9.999999747378752e-05,0.0,0.0,0.0,0.0015999999595806003,2
1638862126000000000,286,1638862126000000000,gnss0,0,7,30.529312780595767,114.35663760213943,38.68000030517578,9.999999747378752e-05,0.0,0.0,0.0,9.999999747378752e-05,0.0,0.0,0.0,0.0015999999595806003,2
1638862127000000000,287,1638862127000000000,gnss0,0,7,30.529302447261752,114.35664422713985,38.73200035095215,9.999999747378752e-05,0.0,0.0,0.0,9.999999747378752e-05,0.0,0.0,0.0,0.0015999999595806003,2
1638862128000000000,288,1638862128000000000,gnss0,0,7,30.52929455059482,114.35665633547374,38.77899932861328,9.999999747378752e-05,0.0,0.0,0.0,9.999999747378752e-05,0.0,0.0,0.0,0.0015999999595806003,2
1638862129000000000,289,1638862129000000000,gnss0,0,7,30.5292879855944,114.35666913547433,38.73500061035156,0.00039999998989515007,0.0,0.0,0.0,0.00039999998989515007,0.0,0.0,0.0,0.002500000176951289,2
1638862130000000000,290,1638862130000000000,gnss0,0,7,30.529288500594415,114.35668358214164,38.68499946594238,0.0009000000427477062,0.0,0.0,0.0,0.0009000000427477062,0.0,0.0,0.0,0.006399999838322401,2
1638862131000000000,291,1638862131000000000,gnss0,0,7,30.529287235594346,114.35669844214264,38.659000396728516,0.0009000000427477062,0.0,0.0,0.0,0.0015999999595806003,0.0,0.0,0.0,0.006399999838322401,2
1638862132000000000,292,1638862132000000000,gnss0,0,7,30.529286723927637,114.35671318214334,38.70100021362305,0.0009000000427477062,0.0,0.0,0.0,0.0015999999595806003,0.0,0.0,0.0,0.008100000210106373,2
1638862133000000000,293,1638862133000000000,gnss0,0,7,30.52928529226088,114.35672795214401,38.74600028991699,0.00039999998989515007,0.0,0.0,0.0,0.00039999998989515007,0.0,0.0,0.0,0.0036000001709908247,2
1638862134000000000,294,1638862134000000000,gnss0,0,7,30.529285288927543,114.35674278547809,38.57399940490723,0.00039999998989515007,0.0,0.0,0.0,0.0009000000427477062,0.0,0.0,0.0,0.002500000176951289,2
1638862135000000000,295,1638862135000000000,gnss0,0,7,30.5292887672611,114.35675696381205,38.670000076293945,0.00039999998989515007,0.0,0.0,0.0,0.00039999998989515007,0.0,0.0,0.0,0.0036000001709908247,2
1638862136000000000,296,1638862136000000000,gnss0,0,7,30.529287612261037,114.3567722354795,38.57200050354004,0.0009000000427477062,0.0,0.0,0.0,0.0009000000427477062,0.0,0.0,0.0,0.004900000058114529,2
1638862137000000000,297,1638862137000000000,gnss0,0,7,30.529287058927665,114.35678695381351,38.672000885009766,0.0009000000427477062,0.0,0.0,0.0,0.0009000000427477062,0.0,0.0,0.0,0.006399999838322401,2
1638862138000000000,298,1638862138000000000,gnss0,0,7,30.529288398927736,114.35680146047842,38.770999908447266,0.00039999998989515007,0.0,0.0,0.0,0.00039999998989515007,0.0,0.0,0.0,0.004900000058114529,2
1638862139000000000,299,1638862139000000000,gnss0,0,7,30.529288035594405,114.35681643047938,38.781999588012695,0.0009000000427477062,0.0,0.0,0.0,0.0009000000427477062,0.0,0.0,0.0,0.008100000210106373,2
1638862140000000000,300,1638862140000000000,gnss0,0,7,30.529290425594553,114.35683064881337,38.82200050354004,0.0009000000427477062,0.0,0.0,0.0,0.0009000000427477062,0.0,0.0,0.0,0.010000000707805157,2
1638862141000000000,301,1638862141000000000,gnss0,0,7,30.529288538927744,114.35684555548076,38.76300048828125,0.0009000000427477062,0.0,0.0,0.0,0.0015999999595806003,0.0,0.0,0.0,0.01209999993443489,2
1638862142000000000,302,1638862142000000000,gnss0,0,7,30.52928420226081,114.35685989214814,38.74300003051758,0.00039999998989515007,0.0,0.0,0.0,0.00039999998989515007,0.0,0.0,0.0,0.004900000058114529,2
1638862143000000000,303,1638862143000000000,gnss0,0,7,30.529282063927585,114.3568741154821,38.77199935913086,0.00039999998989515007,0.0,0.0,0.0,0.00039999998989515007,0.0,0.0,0.0,0.004900000058114529,2
1638862144000000000,304,1638862144000000000,gnss0,0,7,30.529280497260824,114.35688880548281,38.88400077819824,0.0009000000427477062,0.0,0.0,0.0,0.0009000000427477062,0.0,0.0,0.0,0.006399999838322401,2
1638862145000000000,305,1638862145000000000,gnss0,0,7,30.529278970594063,114.35690445048363,38.67600059509277,0.0009000000427477062,0.0,0.0,0.0,0.0015999999595806003,0.0,0.0,0.0,0.010000000707805157,2
1638862146000000000,306,1638862146000000000,gnss0,0,7,30.529277083927262,114.35691943381767,38.65399932861328,0.0009000000427477062,0.0,0.0,0.0,0.0015999999595806003,0.0,0.0,0.0,0.008100000210106373,2
1638862147000000000,307,1638862147000000000,gnss0,0,7,30.52927492392715,114.35693395215164,38.638999938964844,0.0009000000427477062,0.0,0.0,0.0,0.0015999999595806003,0.0,0.0,0.0,0.008100000210106373,2
1638862148000000000,308,1638862148000000000,gnss0,0,7,30.529273690593715,114.3569484771526,38.624000549316406,0.00039999998989515007,0.0,0.0,0.0,0.00039999998989515007,0.0,0.0,0.0,0.002500000176951289,2
1638862149000000000,309,1638862149000000000,gnss0,0,7,30.529274443927108,114.35696315048666,38.70899963378906,0.00039999998989515007,0.0,0.0,0.0,0.00039999998989515007,0.0,0.0,0.0,0.002500000176951289,2
1638862150000000000,310,1638862150000000000,gnss0,0,7,30.529273893927062,114.3569786488182,38.683000564575195,9.999999747378752e-05,0.0,0.0,0.0,0.00039999998989515007,0.0,0.0,0.0,0.0015999999595806003,2
1638862151000000000,311,1638862151000000000,gnss0,0,7,30.52927353892703,114.35699333381893,38.69300079345703,0.00039999998989515007,0.0,0.0,0.0,0.00039999998989515007,0.0,0.0,0.0,0.0036000001709908247,2
1638862152000000000,312,1638862152000000000,gnss0,0,7,30.529273935593736,114.35700790048631,38.71999931335449,0.00039999998989515007,0.0,0.0,0.0,0.00039999998989515007,0.0,0.0,0.0,0.006399999838322401,2
1638862153000000000,313,1638862153000000000,gnss0,0,7,30.529275540593833,114.35702244215366,38.70899963378906,0.00039999998989515007,0.0,0.0,0.0,0.00039999998989515007,0.0,0.0,0.0,0.004900000058114529,2
1638862154000000000,314,1638862154000000000,gnss0,0,7,30.529278105594006,114.35703718215433,38.795000076293945,9.999999747378752e-05,0.0,0.0,0.0,9.999999747378752e-05,0.0,0.0,0.0,0.002500000176951289,2
1638862155000000000,315,1638862155000000000,gnss0,0,7,30.529279433927424,114.35705222215505,38.78800010681152,9.999999747378752e-05,0.0,0.0,0.0,9.999999747378752e-05,0.0,0.0,0.0,0.002500000176951289,2
1638862156000000000,316,1638862156000000000,gnss0,0,7,30.529280855594173,114.35706723382248,38.77000045776367,9.999999747378752e-05,0.0,0.0,0.0,9.999999747378752e-05,0.0,0.0,0.0,0.0015999999595806003,2
1638862157000000000,317,1638862157000000000,gnss0,0,7,30.529282058927585,114.35708248549014,38.80200004577637,9.999999747378752e-05,0.0,0.0,0.0,9.999999747378752e-05,0.0,0.0,0.0,0.0015999999595806003,2
1638862158000000000,318,1638862158000000000,gnss0,0,7,30.52928340559408,114.3570971421575,38.82600021362305,9.999999747378752e-05,0.0,0.0,0.0,9.999999747378752e-05,0.0,0.0,0.0,0.0015999999595806003,2
1638862159000000000,319,1638862159000000000,gnss0,0,7,30.529285058927524,114.35711170715817,38.76799964904785,9.999999747378752e-05,0.0,0.0,0.0,9.999999747378752e-05,0.0,0.0,0.0,0.0015999999595806003,2
1638862160000000000,320,1638862160000000000,gnss0,0,7,30.529288257261097,114.35712609549218,38.829999923706055,9.999999747378752e-05,0.0,0.0,0.0,9.999999747378752e-05,0.0,0.0,0.0,0.0015999999595806003,2
1638862161000000000,321,1638862161000000000,gnss0,0,7,30.52929199892798,114.35713985715704,38.81999969482422,9.999999747378752e-05,0.0,0.0,0.0,9.999999747378752e-05,0.0,0.0,0.0,0.0009000000427477062,2
1638862162000000000,322,1638862162000000000,gnss0,0,7,30.529297290595,114.35715298715763,38.81500053405762,9.999999747378752e-05,0.0,0.0,0.0,9.999999747378752e-05,0.0,0.0,0.0,0.0009000000427477062,2
1638862163000000000,323,1638862163000000000,gnss0,0,7,30.52930317392848,114.35716610882515,38.888999938964844,9.999999747378752e-05,0.0,0.0,0.0,9.999999747378752e-05,0.0,0.0,0.0,0.0009000000427477062,2
1638862164000000000,324,1638862164000000000,gnss0,0,7,30.529310438928928,114.357177712159,38.90399932861328,9.999999747378752e-05,0.0,0.0,0.0,9.999999747378752e-05,0.0,0.0,0.0,0.0009000000427477062,2
1638862165000000000,325,1638862165000000000,gnss0,0,7,30.529319957262654,114.35718745049272,38.91900062561035,9.999999747378752e-05,0.0,0.0,0.0,9.999999747378752e-05,0.0,0.0,0.0,0.0009000000427477062,2
1638862166000000000,326,1638862166000000000,gnss0,0,7,30.529329362263244,114.35719558049318,38.94300079345703,9.999999747378752e-05,0.0,0.0,0.0,9.999999747378752e-05,0.0,0.0,0.0,0.0009000000427477062,2
1638862167000000000,327,1638862167000000000,gnss0,0,7,30.52933956393033,114.35720354549348,39.03800010681152,9.999999747378752e-05,0.0,0.0,0.0,9.999999747378752e-05,0.0,0.0,0.0,0.0015999999595806003,2
1638862168000000000,328,1638862168000000000,gnss0,0,7,30.52935045393078,114.35721311216078,39.066999435424805,9.999999747378752e-05,0.0,0.0,0.0,9.999999747378752e-05,0.0,0.0,0.0,0.0015999999595806003,2
1638862169000000000,329,1638862169000000000,gnss0,0,7,30.52935844893129,114.35722542882796,39.077999114990234,0.00039999998989515007,0.0,0.0,0.0,9.999999747378752e-05,0.0,0.0,0.0,0.002500000176951289,2
1638862170000000000,330,1638862170000000000,gnss0,0,7,30.529365135598386,114.35723866216195,39.01300048828125,0.00039999998989515007,0.0,0.0,0.0,9.999999747378752e-05,0.0,0.0,0.0,0.002500000176951289,2
1638862171000000000,331,1638862171000000000,gnss0,0,7,30.529369383929264,114.3572532388293,39.0310001373291,0.00039999998989515007,0.0,0.0,0.0,0.00039999998989515007,0.0,0.0,0.0,0.0036000001709908247,2
1638862172000000000,332,1638862172000000000,gnss0,0,7,30.529372132262775,114.35726865549667,38.97400093078613,0.00039999998989515007,0.0,0.0,0.0,0.00039999998989515007,0.0,0.0,0.0,0.004900000058114529,2
1638862173000000000,333,1638862173000000000,gnss0,0,7,30.529374213929586,114.35728326049764,38.91699981689453,0.0009000000427477062,0.0,0.0,0.0,0.0009000000427477062,0.0,0.0,0.0,0.004900000058114529,2
1638862174000000000,334,1638862174000000000,gnss0,0,7,30.529374938929642,114.35729798883168,38.9640007019043,0.0009000000427477062,0.0,0.0,0.0,0.00039999998989515007,0.0,0.0,0.0,0.0036000001709908247,2
1638862175000000000,335,1638862175000000000,gnss0,0,7,30.52937541226299,114.35731215382988,38.922000885009766,0.0009000000427477062,0.0,0.0,0.0,0.0009000000427477062,0.0,0.0,0.0,0.008100000210106373,2
1638862176000000000,336,1638862176000000000,gnss0,0,7,30.52937678226307,114.35732655383056,39.016000747680664,0.0009000000427477062,0.0,0.0,0.0,0.0009000000427477062,0.0,0.0,0.0,0.010000000707805157,2
1638862177000000000,337,1638862177000000000,gnss0,0,7,30.529377822263143,114.3573415071646,38.986000061035156,0.0009000000427477062,0.0,0.0,0.0,0.0009000000427477062,0.0,0.0,0.0,0.010000000707805157,2
1638862178000000000,338,1638862178000000000,gnss0,0,7,30.5293792089299,114.35735526549857,39.07200050354004,9.999999747378752e-05,0.0,0.0,0.0,9.999999747378752e-05,0.0,0.0,0.0,0.002500000176951289,2
1638862179000000000,339,1638862179000000000,gnss0,0,7,30.529384658930013,114.35736796216582,39.06399917602539,9.999999747378752e-05,0.0,0.0,0.0,0.00039999998989515007,0.0,0.0,0.0,0.002500000176951289,2
1638862180000000000,340,1638862180000000000,gnss0,0,7,30.529393505597234,114.35737808216648,39.09600067138672,9.999999747378752e-05,0.0,0.0,0.0,0.00039999998989515007,0.0,0.0,0.0,0.002500000176951289,2
1638862181000000000,341,1638862181000000000,gnss0,0,7,30.52940514226441,114.35738426883327,39.05699920654297,9.999999747378752e-05,0.0,0.0,0.0,9.999999747378752e-05,0.0,0.0,0.0,0.0015999999595806003,2
1638862182000000000,342,1638862182000000000,gnss0,0,7,30.529417342264964,114.35738865050024,39.09700012207031,9.999999747378752e-05,0.0,0.0,0.0,9.999999747378752e-05,0.0,0.0,0.0,0.0015999999595806003,2
1638862183000000000,343,1638862183000000000,gnss0,0,7,30.529429692265765,114.35738908883359,39.15800094604492,9.999999747378752e-05,0.0,0.0,0.0,9.999999747378752e-05,0.0,0.0,0.0,0.0015999999595806003,2
1638862184000000000,344,1638862184000000000,gnss0,0,7,30.529442715599686,114.35738783383356,39.14500045776367,9.999999747378752e-05,0.0,0.0,0.0,9.999999747378752e-05,0.0,0.0,0.0,0.0015999999595806003,2
1638862185000000000,345,1638862185000000000,gnss0,0,7,30.529455990600294,114.35738672050013,39.12299919128418,9.999999747378752e-05,0.0,0.0,0.0,9.999999747378752e-05,0.0,0.0,0.0,0.0009000000427477062,2
1638862186000000000,346,1638862186000000000,gnss0,0,7,30.529469073934226,114.35738564050004,39.138999938964844,9.999999747378752e-05,0.0,0.0,0.0,9.999999747378752e-05,0.0,0.0,0.0,0.0015999999595806003,2
1638862187000000000,347,1638862187000000000,gnss0,0,7,30.529482107268404,114.35738437216663,39.16300010681152,9.999999747378752e-05,0.0,0.0,0.0,9.999999747378752e-05,0.0,0.0,0.0,0.0015999999595806003,2
1638862188000000000,348,1638862188000000000,gnss0,0,7,30.529495010602318,114.35738362716656,39.20000076293945,9.999999747378752e-05,0.0,0.0,0.0,9.999999747378752e-05,0.0,0.0,0.0,0.0015999999595806003,2
1638862189000000000,349,1638862189000000000,gnss0,0,7,30.529508260602952,114.3573829571668,39.204999923706055,9.999999747378752e-05,0.0,0.0,0.0,9.999999747378752e-05,0.0,0.0,0.0,0.0015999999595806003,2
1638862190000000000,350,1638862190000000000,gnss0,0,7,30.529520805603497,114.35738185050005,39.23299980163574,9.999999747378752e-05,0.0,0.0,0.0,9.999999747378752e-05,0.0,0.0,0.0,0.0015999999595806003,2
1638862191000000000,351,1638862191000000000,gnss0,0,7,30.52953314227097,114.35737897216652,39.25699996948242,9.999999747378752e-05,0.0,0.0,0.0,9.999999747378752e-05,0.0,0.0,0.0,0.0015999999595806003,2
1638862192000000000,352,1638862192000000000,gnss0,0,7,30.529544702268982,114.35737272383282,39.25900077819824,9.999999747378752e-05,0.0,0.0,0.0,9.999999747378752e-05,0.0,0.0,0.0,0.0015999999595806003,2
1638862193000000000,353,1638862193000000000,gnss0,0,7,30.529554380602693,114.3573633554991,39.23699951171875,9.999999747378752e-05,0.0,0.0,0.0,9.999999747378752e-05,0.0,0.0,0.0,0.0015999999595806003,2
1638862194000000000,354,1638862194000000000,gnss0,0,7,30.529561197269796,114.35735135049836,39.27499961853027,9.999999747378752e-05,0.0,0.0,0.0,9.999999747378752e-05,0.0,0.0,0.0,0.0015999999595806003,2
1638862195000000000,355,1638862195000000000,gnss0,0,7,30.5295631439366,114.35733712049768,39.32099914550781,9.999999747378752e-05,0.0,0.0,0.0,9.999999747378752e-05,0.0,0.0,0.0,0.0015999999595806003,2
1638862196000000000,356,1638862196000000000,gnss0,0,7,30.52956307060326,114.35732197383025,39.316999435424805,9.999999747378752e-05,0.0,0.0,0.0,9.999999747378752e-05,0.0,0.0,0.0,0.0015999999595806003,2
1638862197000000000,357,1638862197000000000,gnss0,0,7,30.52956346226993,114.3573066304962,39.33300018310547,9.999999747378752e-05,0.0,0.0,0.0,9.999999747378752e-05,0.0,0.0,0.0,0.0015999999595806003,2
1638862198000000000,358,1638862198000000000,gnss0,0,7,30.52956467893669,114.35729249049798,39.34199905395508,0.00039999998989515007,0.0,0.0,0.0,9.999999747378752e-05,0.0,0.0,0.0,0.002500000176951289,2
1638862199000000000,359,1638862199000000000,gnss0,0,7,30.529568248936684,114.35728060216411,39.40999984741211,0.00039999998989515007,0.0,0.0,0.0,9.999999747378752e-05,0.0,0.0,0.0,0.002500000176951289,2
1638862200000000000,360,1638862200000000000,gnss0,0,7,30.529573858937034,114.35727000883013,39.38599967956543,0.00039999998989515007,0.0,0.0,0.0,0.00039999998989515007,0.0,0.0,0.0,0.0036000001709908247,2
1638862201000000000,361,1638862201000000000,gnss0,0,7,30.529580073937424,114.35725860549626,39.479000091552734,0.00039999998989515007,0.0,0.0,0.0,0.00039999998989515007,0.0,0.0,0.0,0.0036000001709908247,2
1638862202000000000,362,1638862202000000000,gnss0,0,7,30.529588688937732,114.35724916549597,39.483999252319336,0.0009000000427477062,0.0,0.0,0.0,0.00039999998989515007,0.0,0.0,0.0,0.004900000058114529,2
1638862203000000000,363,1638862203000000000,gnss0,0,7,30.529599908938476,114.35724288549554,39.57699966430664,0.0009000000427477062,0.0,0.0,0.0,0.00039999998989515007,0.0,0.0,0.0,0.004900000058114529,2
1638862204000000000,364,1638862204000000000,gnss0,0,7,30.529612687272383,114.35723836049524,39.59600067138672,0.0009000000427477062,0.0,0.0,0.0,0.00039999998989515007,0.0,0.0,0.0,0.006399999838322401,2
1638862205000000000,365,1638862205000000000,gnss0,0,7,30.52962619727301,114.35723706049518,39.48699951171875,0.0009000000427477062,0.0,0.0,0.0,0.00039999998989515007,0.0,0.0,0.0,0.006399999838322401,2
1638862206000000000,366,1638862206000000000,gnss0,0,7,30.529639042273583,114.35723773882856,39.52799987792969,0.0009000000427477062,0.0,0.0,0.0,0.00039999998989515007,0.0,0.0,0.0,0.006399999838322401,2
1638862207000000000,367,1638862207000000000,gnss0,0,7,30.529652045607513,114.3572385538286,39.590999603271484,0.0009000000427477062,0.0,0.0,0.0,0.00039999998989515007,0.0,0.0,0.0,0.008100000210106373,2
1638862208000000000,368,1638862208000000000,gnss0,0,7,30.529665227275025,114.35723901882864,39.59199905395508,0.0009000000427477062,0.0,0.0,0.0,0.00039999998989515007,0.0,0.0,0.0,0.006399999838322401,2
1638862209000000000,369,1638862209000000000,gnss0,0,7,30.529678140608972,114.35723972216203,39.5629997253418,0.0009000000427477062,0.0,0.0,0.0,0.00039999998989515007,0.0,0.0,0.0,0.006399999838322401,2
1638862210000000000,370,1638862210000000000,gnss0,0,7,30.52969130560957,114.35724049549539,39.59700012207031,0.0009000000427477062,0.0,0.0,0.0,0.00039999998989515007,0.0,0.0,0.0,0.006399999838322401,2
1638862211000000000,371,1638862211000000000,gnss0,0,7,30.529703958940985,114.3572412404954,39.60000038146973,0.0009000000427477062,0.0,0.0,0.0,0.00039999998989515007,0.0,0.0,0.0,0.004900000058114529,2
1638862212000000000,372,1638862212000000000,gnss0,0,7,30.529716497275135,114.35724238049549,39.614999771118164,0.0009000000427477062,0.0,0.0,0.0,0.00039999998989515007,0.0,0.0,0.0,0.006399999838322401,2
1638862213000000000,373,1638862213000000000,gnss0,0,7,30.529728933942344,114.35724170049546,39.680999755859375,0.0009000000427477062,0.0,0.0,0.0,0.00039999998989515007,0.0,0.0,0.0,0.006399999838322401,2
1638862214000000000,374,1638862214000000000,gnss0,0,7,30.52974187060959,114.35723862549527,39.593000411987305,0.0015999999595806003,0.0,0.0,0.0,0.0009000000427477062,0.0,0.0,0.0,0.010000000707805157,2
1638862215000000000,375,1638862215000000000,gnss0,0,7,30.529754860610204,114.35723797216188,39.608999252319336,0.0015999999595806003,0.0,0.0,0.0,0.0009000000427477062,0.0,0.0,0.0,0.01209999993443489,2
1638862216000000000,376,1638862216000000000,gnss0,0,7,30.529768040610804,114.3572382038286,39.58699989318848,0.0015999999595806003,0.0,0.0,0.0,0.0009000000427477062,0.0,0.0,0.0,0.014399999752640724,2
1638862217000000000,377,1638862217000000000,gnss0,0,7,30.5297809772783,114.35723882216195,39.58399963378906,0.0015999999595806003,0.0,0.0,0.0,0.0015999999595806003,0.0,0.0,0.0,0.014399999752640724,2
1638862218000000000,378,1638862218000000000,gnss0,0,7,30.52979395894556,114.35724002382867,39.59000015258789,0.0015999999595806003,0.0,0.0,0.0,0.0015999999595806003,0.0,0.0,0.0,0.016899999231100082,2
1638862219000000000,379,1638862219000000000,gnss0,0,7,30.529806617279483,114.35724286882886,39.62700080871582,0.002500000176951289,0.0,0.0,0.0,0.0015999999595806003,0.0,0.0,0.0,0.019600000232458115,2
1638862220000000000,380,1638862220000000000,gnss0,0,7,30.52981892894668,114.35724526049566,39.63199996948242,0.002500000176951289,0.0,0.0,0.0,0.0015999999595806003,0.0,0.0,0.0,0.02250000089406967,2
1638862221000000000,381,1638862221000000000,gnss0,0,7,30.529831462280836,114.3572463438291,39.614999771118164,0.002500000176951289,0.0,0.0,0.0,0.002500000176951289,0.0,0.0,0.0,0.025599999353289604,2
1638862222000000000,382,1638862222000000000,gnss0,0,7,30.529844387281415,114.35724601882909,39.617000579833984,0.002500000176951289,0.0,0.0,0.0,0.002500000176951289,0.0,0.0,0.0,0.025599999353289604,2
1638862223000000000,383,1638862223000000000,gnss0,0,7,30.529856972281976,114.35724668716246,39.621999740600586,0.002500000176951289,0.0,0.0,0.0,0.0036000001709908247,0.0,0.0,0.0,0.025599999353289604,2
1638862224000000000,384,1638862224000000000,gnss0,0,7,30.529869828946758,114.3572463388291,39.58600044250488,0.002500000176951289,0.0,0.0,0.0,0.002500000176951289,0.0,0.0,0.0,0.025599999353289604,2
1638862225000000000,385,1638862225000000000,gnss0,0,7,30.529882848947594,114.3572462588291,39.59199905395508,0.002500000176951289,0.0,0.0,0.0,0.002500000176951289,0.0,0.0,0.0,0.02250000089406967,2
1638862226000000000,386,1638862226000000000,gnss0,0,7,30.52989555894817,114.357245313829,39.617000579833984,0.0015999999595806003,0.0,0.0,0.0,0.0015999999595806003,0.0,0.0,0.0,0.016899999231100082,2
1638862227000000000,387,1638862227000000000,gnss0,0,7,30.5299087272821,114.35724499049569,39.61000061035156,0.0009000000427477062,0.0,0.0,0.0,0.0015999999595806003,0.0,0.0,0.0,0.014399999752640724,2
1638862228000000000,388,1638862228000000000,gnss0,0,7,30.529921508949364,114.35724474382899,39.606000900268555,0.0009000000427477062,0.0,0.0,0.0,0.0015999999595806003,0.0,0.0,0.0,0.014399999752640724,2
1638862229000000000,389,1638862229000000000,gnss0,0,7,30.529934033949896,114.35724490216235,39.7810001373291,0.0009000000427477062,0.0,0.0,0.0,0.0015999999595806003,0.0,0.0,0.0,0.016899999231100082,2
1638862230000000000,390,1638862230000000000,gnss0,0,7,30.52994679728406,114.35724504716234,39.86000061035156,0.0015999999595806003,0.0,0.0,0.0,0.002500000176951289,0.0,0.0,0.0,0.019600000232458115,2
1638862231000000000,391,1638862231000000000,gnss0,0,7,30.529959435617975,114.35724684216245,39.81800079345703,0.0015999999595806003,0.0,0.0,0.0,0.002500000176951289,0.0,0.0,0.0,0.019600000232458115,2
1638862232000000000,392,1638862232000000000,gnss0,0,7,30.52997165061853,114.35724713216248,39.861000061035156,0.0015999999595806003,0.0,0.0,0.0,0.002500000176951289,0.0,0.0,0.0,0.02250000089406967,2
1638862233000000000,393,1638862233000000000,gnss0,0,7,30.529985227285803,114.35724611216243,39.67900085449219,0.0015999999595806003,0.0,0.0,0.0,0.002500000176951289,0.0,0.0,0.0,0.02250000089406967,2
1638862234000000000,394,1638862234000000000,gnss0,0,7,30.529997895619967,114.35724703382915,39.829999923706055,0.0015999999595806003,0.0,0.0,0.0,0.002500000176951289,0.0,0.0,0.0,0.019600000232458115,2
1638862235000000000,395,1638862235000000000,gnss0,0,7,30.530010878953888,114.35724682882915,39.665000915527344,0.0015999999595806003,0.0,0.0,0.0,0.002500000176951289,0.0,0.0,0.0,0.019600000232458115,2
1638862236000000000,396,1638862236000000000,gnss0,0,7,30.530023503954457,114.35724500216236,39.65399932861328,0.002500000176951289,0.0,0.0,0.0,0.002500000176951289,0.0,0.0,0.0,0.019600000232458115,2
1638862237000000000,397,1638862237000000000,gnss0,0,7,30.530036322285888,114.3572433988289,39.60700035095215,0.002500000176951289,0.0,0.0,0.0,0.0036000001709908247,0.0,0.0,0.0,0.02250000089406967,2
1638862238000000000,398,1638862238000000000,gnss0,0,7,30.5300497706201,114.35724468716235,39.531999588012695,0.002500000176951289,0.0,0.0,0.0,0.0036000001709908247,0.0,0.0,0.0,0.025599999353289604,2
1638862239000000000,399,1638862239000000000,gnss0,0,7,30.530062025620634,114.35724709716246,39.74099922180176,0.0036000001709908247,0.0,0.0,0.0,0.004900000058114529,0.0,0.0,0.0,0.03610000014305115,2
1638862240000000000,400,1638862240000000000,gnss0,0,7,30.530074932287906,114.3572478138292,39.71299934387207,0.004900000058114529,0.0,0.0,0.0,0.004900000058114529,0.0,0.0,0.0,0.04000000283122063,2
1638862241000000000,401,1638862241000000000,gnss0,0,7,30.530088203955174,114.35724724382912,39.64999961853027,0.006399999838322401,0.0,0.0,0.0,0.006399999838322401,0.0,0.0,0.0,0.04839999973773956,2
1638862242000000000,402,1638862242000000000,gnss0,0,7,30.530100940622408,114.35724915549595,39.6870002746582,0.006399999838322401,0.0,0.0,0.0,0.006399999838322401,0.0,0.0,0.0,0.05290000140666962,2
1638862243000000000,403,1638862243000000000,gnss0,0,7,30.53011377395657,114.35724799382922,39.72400093078613,0.006399999838322401,0.0,0.0,0.0,0.008100000210106373,0.0,0.0,0.0,0.05290000140666962,2
1638862244000000000,404,1638862244000000000,gnss0,0,7,30.53012651395716,114.35724906382929,39.73500061035156,0.008100000210106373,0.0,0.0,0.0,0.008100000210106373,0.0,0.0,0.0,0.0575999990105629,2
1638862245000000000,405,1638862245000000000,gnss0,0,7,30.530139235624393,114.35725064216246,39.795000076293945,0.008100000210106373,0.0,0.0,0.0,0.008100000210106373,0.0,0.0,0.0,0.0625,2
1638862246000000000,406,1638862246000000000,gnss0,0,7,30.53015242395833,114.35725171882919,39.722999572753906,0.010000000707805157,0.0,0.0,0.0,0.008100000210106373,0.0,0.0,0.0,0.06759999692440033,2
1638862247000000000,407,1638862247000000000,gnss0,0,7,30.530165093959138,114.3572541421627,39.790000915527344,0.010000000707805157,0.0,0.0,0.0,0.008100000210106373,0.0,0.0,0.0,0.06759999692440033,2
1638862248000000000,408,1638862248000000000,gnss0,0,7,30.530177592293043,114.35725545049611,39.75600051879883,0.010000000707805157,0.0,0.0,0.0,0.008100000210106373,0.0,0.0,0.0,0.07290000468492508,2
1638862249000000000,409,1638862249000000000,gnss0,0,7,30.530190622293645,114.35725637882953,39.766000747680664,0.010000000707805157,0.0,0.0,0.0,0.008100000210106373,0.0,0.0,0.0,0.07840000092983246,2
1638862250000000000,410,1638862250000000000,gnss0,0,7,30.53020375393359,114.3572570254962,39.70400047302246,0.010000000707805157,0.0,0.0,0.0,0.010000000707805157,0.0,0.0,0.0,0.07840000092983246,2
1638862251000000000,411,1638862251000000000,gnss0,0,7,30.53021683560085,114.35725732882955,39.70400047302246,0.010000000707805157,0.0,0.0,0.0,0.010000000707805157,0.0,0.0,0.0,0.08409999310970306,2
1638862252000000000,412,1638862252000000000,gnss0,0,7,30.530229373935,114.35725739049623,39.66699981689453,0.01209999993443489,0.0,0.0,0.0,0.010000000707805157,0.0,0.0,0.0,0.08409999310970306,2
1638862253000000000,413,1638862253000000000,gnss0,0,7,30.530242058935567,114.35725546216278,39.71500015258789,0.01209999993443489,0.0,0.0,0.0,0.010000000707805157,0.0,0.0,0.0,0.09000000357627869,2
1638862254000000000,414,1638862254000000000,gnss0,0,7,30.530255165602828,114.35725567716278,39.68199920654297,0.01209999993443489,0.0,0.0,0.0,0.010000000707805157,0.0,0.0,0.0,0.09000000357627869,2
1638862255000000000,415,1638862255000000000,gnss0,0,7,30.530267887270085,114.35725623549617,39.659000396728516,0.01209999993443489,0.0,0.0,0.0,0.010000000707805157,0.0,0.0,0.0,0.09000000357627869,2
1638862256000000000,416,1638862256000000000,gnss0,0,7,30.530280865604244,114.35725520549606,39.65999984741211,0.01209999993443489,0.0,0.0,0.0,0.010000000707805157,0.0,0.0,0.0,0.09610000252723694,2
1638862257000000000,417,1638862257000000000,gnss0,0,7,30.53029394727152,114.35725398716268,39.71199989318848,0.014399999752640724,0.0,0.0,0.0,0.010000000707805157,0.0,0.0,0.0,0.09610000252723694,2
1638862258000000000,418,1638862258000000000,gnss0,0,7,30.530307353938806,114.35725374716263,39.731000900268555,0.014399999752640724,0.0,0.0,0.0,0.010000000707805157,0.0,0.0,0.0,0.10239999741315842,2
1638862259000000000,419,1638862259000000000,gnss0,0,7,30.53032026393939,114.35725320049598,39.707000732421875,0.014399999752640724,0.0,0.0,0.0,0.010000000707805157,0.0,0.0,0.0,0.10890001058578491,2
1638862260000000000,420,1638862260000000000,gnss0,0,7,30.530332897273546,114.35725171049585,39.69499969482422,0.014399999752640724,0.0,0.0,0.0,0.010000000707805157,0.0,0.0,0.0,0.10890001058578491,2
1638862261000000000,421,1638862261000000000,gnss0,0,7,30.53034591394081,114.35725260549589,39.7189998626709,0.014399999752640724,0.0,0.0,0.0,0.010000000707805157,0.0,0.0,0.0,0.10890001058578491,2
1638862262000000000,422,1638862262000000000,gnss0,0,7,30.530358812274716,114.35725371882933,39.749000549316406,0.016899999231100082,0.0,0.0,0.0,0.01209999993443489,0.0,0.0,0.0,0.11560000479221344,2
1638862263000000000,423,1638862263000000000,gnss0,0,7,30.53037157060616,114.35725527216272,39.643999099731445,0.016899999231100082,0.0,0.0,0.0,0.01209999993443489,0.0,0.0,0.0,0.11560000479221344,2
1638862264000000000,424,1638862264000000000,gnss0,0,7,30.530383892273363,114.35725438882938,39.63999938964844,0.016899999231100082,0.0,0.0,0.0,0.01209999993443489,0.0,0.0,0.0,0.1224999949336052,2
1638862265000000000,425,1638862265000000000,gnss0,0,7,30.530396838940856,114.35725384382931,39.6879997253418,0.016899999231100082,0.0,0.0,0.0,0.01209999993443489,0.0,0.0,0.0,0.12960000336170197,2
1638862266000000000,426,1638862266000000000,gnss0,0,7,30.530409597274787,114.35725227549588,39.74099922180176,0.019600000232458115,0.0,0.0,0.0,0.014399999752640724,0.0,0.0,0.0,0.13690000772476196,2
1638862267000000000,427,1638862267000000000,gnss0,0,7,30.530422367275342,114.35725142882919,39.73900032043457,0.019600000232458115,0.0,0.0,0.0,0.014399999752640724,0.0,0.0,0.0,0.1444000005722046,2
1638862268000000000,428,1638862268000000000,gnss0,0,7,30.530435380609276,114.35725088716248,39.77599906921387,0.02250000089406967,0.0,0.0,0.0,0.014399999752640724,0.0,0.0,0.0,0.1444000005722046,2
1638862269000000000,429,1638862269000000000,gnss0,0,7,30.53044824894346,114.35725038382911,39.808000564575195,0.02250000089406967,0.0,0.0,0.0,0.014399999752640724,0.0,0.0,0.0,0.15210001170635223,2
1638862270000000000,430,1638862270000000000,gnss0,0,7,30.530461253944043,114.35725032549577,39.736000061035156,0.02250000089406967,0.0,0.0,0.0,0.016899999231100082,0.0,0.0,0.0,0.1600000113248825,2
1638862271000000000,431,1638862271000000000,gnss0,0,7,30.530474152277964,114.35725120549581,39.76199913024902,0.02250000089406967,0.0,0.0,0.0,0.016899999231100082,0.0,0.0,0.0,0.1680999994277954,2
1638862272000000000,432,1638862272000000000,gnss0,0,7,30.530486818945196,114.3572530238293,39.80900001525879,0.025599999353289604,0.0,0.0,0.0,0.016899999231100082,0.0,0.0,0.0,0.1680999994277954,2
1638862273000000000,433,1638862273000000000,gnss0,0,7,30.53049934894601,114.35725555382945,39.86199951171875,0.025599999353289604,0.0,0.0,0.0,0.016899999231100082,0.0,0.0,0.0,0.1680999994277954,2
1638862274000000000,434,1638862274000000000,gnss0,0,7,30.530512477279945,114.35725862216293,39.78000068664551,0.025599999353289604,0.0,0.0,0.0,0.016899999231100082,0.0,0.0,0.0,0.1680999994277954,2
1638862275000000000,435,1638862275000000000,gnss0,0,7,30.530525013947166,114.35726128049646,39.83099937438965,0.025599999353289604,0.0,0.0,0.0,0.019600000232458115,0.0,0.0,0.0,0.17639999091625214,2
1638862276000000000,436,1638862276000000000,gnss0,0,7,30.53053826061198,114.3572635204966,39.702999114990234,0.025599999353289604,0.0,0.0,0.0,0.019600000232458115,0.0,0.0,0.0,0.18490000069141388,2
1638862277000000000,437,1638862277000000000,gnss0,0,7,30.53055088394586,114.35726675549654,39.742000579833984,0.025599999353289604,0.0,0.0,0.0,0.019600000232458115,0.0,0.0,0.0,0.18490000069141388,2
1638862278000000000,438,1638862278000000000,gnss0,0,7,30.530563515613338,114.35726963216342,39.83300018310547,0.025599999353289604,0.0,0.0,0.0,0.019600000232458115,0.0,0.0,0.0,0.19359999895095825,2
1638862279000000000,439,1638862279000000000,gnss0,0,7,30.530575753947225,114.35727313216368,39.749000549316406,0.02890000119805336,0.0,0.0,0.0,0.02250000089406967,0.0,0.0,0.0,0.21160000562667847,2
1638862280000000000,440,1638862280000000000,gnss0,0,7,30.530588290614475,114.35727693716387,39.67900085449219,0.02890000119805336,0.0,0.0,0.0,0.025599999353289604,0.0,0.0,0.0,0.22089999914169312,2
1638862281000000000,441,1638862281000000000,gnss0,0,7,30.530601028948357,114.35728020383077,39.66600036621094,0.02890000119805336,0.0,0.0,0.0,0.025599999353289604,0.0,0.0,0.0,0.22089999914169312,2
1638862282000000000,442,1638862282000000000,gnss0,0,7,30.530612825615798,114.35728373883074,39.86000061035156,0.02890000119805336,0.0,0.0,0.0,0.025599999353289604,0.0,0.0,0.0,0.2303999960422516,2
1638862283000000000,443,1638862283000000000,gnss0,0,7,30.530624998949687,114.35728836883105,39.643999099731445,0.03240000084042549,0.0,0.0,0.0,0.025599999353289604,0.0,0.0,0.0,0.24010001122951508,2
1638862284000000000,444,1638862284000000000,gnss0,0,7,30.530636597283518,114.3572954888315,39.757999420166016,0.03240000084042549,0.0,0.0,0.0,0.025599999353289604,0.0,0.0,0.0,0.25,2
1638862285000000000,445,1638862285000000000,gnss0,0,7,30.53064740061753,114.35730345882932,39.864999771118164,0.03240000084042549,0.0,0.0,0.0,0.025599999353289604,0.0,0.0,0.0,0.25,2
1638862286000000000,446,1638862286000000000,gnss0,0,7,30.530658317284676,114.3573095638297,39.82900047302246,0.03240000084042549,0.0,0.0,0.0,0.02890000119805336,0.0,0.0,0.0,0.26009997725486755,2
1638862287000000000,447,1638862287000000000,gnss0,0,7,30.530669752285167,114.35731515049676,39.98299980163574,0.03610000014305115,0.0,0.0,0.0,0.02890000119805336,0.0,0.0,0.0,0.2703999876976013,2
1638862288000000000,448,1638862288000000000,gnss0,0,7,30.530681437285917,114.35731939716344,39.81999969482422,0.03610000014305115,0.0,0.0,0.0,0.02890000119805336,0.0,0.0,0.0,0.2916000187397003,2
1638862289000000000,449,1638862289000000000,gnss0,0,7,30.530693843953127,114.35731904883008,39.94700050354004,0.03610000014305115,0.0,0.0,0.0,0.03240000084042549,0.0,0.0,0.0,0.30250000953674316,2
1638862290000000000,450,1638862290000000000,gnss0,0,7,30.530705937284516,114.35731739216331,39.86800003051758,0.03610000014305115,0.0,0.0,0.0,0.03240000084042549,0.0,0.0,0.0,0.30250000953674316,2
1638862291000000000,451,1638862291000000000,gnss0,0,7,30.530718965618444,114.35731611716349,39.85099983215332,0.04000000283122063,0.0,0.0,0.0,0.03240000084042549,0.0,0.0,0.0,0.31360000371932983,2
1638862292000000000,452,1638862292000000000,gnss0,0,7,30.53073150228594,114.35731570716345,39.67700004577637,0.04000000283122063,0.0,0.0,0.0,0.03240000084042549,0.0,0.0,0.0,0.3249000012874603,2
1638862293000000000,453,1638862293000000000,gnss0,0,7,30.530744127286486,114.35731838216336,39.67399978637695,0.04000000283122063,0.0,0.0,0.0,0.03240000084042549,0.0,0.0,0.0,0.33639997243881226,2
1638862294000000000,454,1638862294000000000,gnss0,0,7,30.53075673728705,114.35732165049693,39.6870002746582,0.04000000283122063,0.0,0.0,0.0,0.03610000014305115,0.0,0.0,0.0,0.3480999767780304,2
1638862295000000000,455,1638862295000000000,gnss0,0,7,30.53076884728759,114.35732658549719,39.763999938964844,0.04000000283122063,0.0,0.0,0.0,0.03610000014305115,0.0,0.0,0.0,0.36000001430511475,2
1638862296000000000,456,1638862296000000000,gnss0,0,7,30.5307807906217,114.35733278049763,39.81599998474121,0.04000000283122063,0.0,0.0,0.0,0.03610000014305115,0.0,0.0,0.0,0.36000001430511475,2
1638862297000000000,457,1638862297000000000,gnss0,0,7,30.530792618955555,114.35733878049777,39.746999740600586,0.044099997729063034,0.0,0.0,0.0,0.03610000014305115,0.0,0.0,0.0,0.37210002541542053,2
1638862298000000000,458,1638862298000000000,gnss0,0,7,30.53080436395607,114.35734349049808,39.76499938964844,0.044099997729063034,0.0,0.0,0.0,0.03610000014305115,0.0,0.0,0.0,0.37210002541542053,2
1638862299000000000,459,1638862299000000000,gnss0,0,7,30.530816785623287,114.35734789716504,39.81399917602539,0.044099997729063034,0.0,0.0,0.0,0.03610000014305115,0.0,0.0,0.0,0.37210002541542053,2
1638862300000000000,460,1638862300000000000,gnss0,0,7,30.530829007290755,114.35735272883178,39.84000015258789,0.044099997729063034,0.0,0.0,0.0,0.03610000014305115,0.0,0.0,0.0,0.38440001010894775,2
1638862301000000000,461,1638862301000000000,gnss0,0,7,30.530841702291305,114.35735555216527,39.885000228881836,0.044099997729063034,0.0,0.0,0.0,0.04000000283122063,0.0,0.0,0.0,0.38440001010894775,2
1638862302000000000,462,1638862302000000000,gnss0,0,7,30.530853923958535,114.357356738832,39.94700050354004,0.044099997729063034,0.0,0.0,0.0,0.04000000283122063,0.0,0.0,0.0,0.3968999981880188,2
1638862303000000000,463,1638862303000000000,gnss0,0,7,30.53086674728995,114.35735738216539,39.98200035095215,0.044099997729063034,0.0,0.0,0.0,0.04000000283122063,0.0,0.0,0.0,0.3968999981880188,2
1638862304000000000,464,1638862304000000000,gnss0,0,7,30.530879855624146,114.3573577771654,40.04400062561035,0.044099997729063034,0.0,0.0,0.0,0.04000000283122063,0.0,0.0,0.0,0.40959998965263367,2
1638862305000000000,465,1638862305000000000,gnss0,0,7,30.53089304562475,114.35735762883206,40.02499961853027,0.044099997729063034,0.0,0.0,0.0,0.04000000283122063,0.0,0.0,0.0,0.40959998965263367,2
1638862306000000000,466,1638862306000000000,gnss0,0,7,30.53090562562531,114.35735731883203,40.07099914550781,0.044099997729063034,0.0,0.0,0.0,0.04000000283122063,0.0,0.0,0.0,0.42249995470046997,2
1638862307000000000,467,1638862307000000000,gnss0,0,7,30.5309187406259,114.35735734049871,40.0,0.04839999973773956,0.0,0.0,0.0,0.04000000283122063,0.0,0.0,0.0,0.42249995470046997,2
1638862308000000000,468,1638862308000000000,gnss0,0,7,30.530931687293393,114.3573579271654,39.9640007019043,0.04839999973773956,0.0,0.0,0.0,0.04000000283122063,0.0,0.0,0.0,0.42249995470046997,2
1638862309000000000,469,1638862309000000000,gnss0,0,7,30.530944485627323,114.35735802716543,39.933000564575195,0.04839999973773956,0.0,0.0,0.0,0.04000000283122063,0.0,0.0,0.0,0.42249995470046997,2
1638862310000000000,470,1638862310000000000,gnss0,0,7,30.530957405627902,114.35735681049867,39.89699935913086,0.04839999973773956,0.0,0.0,0.0,0.044099997729063034,0.0,0.0,0.0,0.42249995470046997,2
1638862311000000000,471,1638862311000000000,gnss0,0,7,30.53097076562853,114.35735637216536,39.88800048828125,0.04839999973773956,0.0,0.0,0.0,0.044099997729063034,0.0,0.0,0.0,0.43560004234313965,2
1638862312000000000,472,1638862312000000000,gnss0,0,7,30.53098409729581,114.357356338832,39.79999923706055,0.04839999973773956,0.0,0.0,0.0,0.044099997729063034,0.0,0.0,0.0,0.43560004234313965,2
1638862313000000000,473,1638862313000000000,gnss0,0,7,30.53099731563,114.35735617883199,39.79400062561035,0.04839999973773956,0.0,0.0,0.0,0.044099997729063034,0.0,0.0,0.0,0.43560004234313965,2
1638862314000000000,474,1638862314000000000,gnss0,0,7,30.5310104406306,114.35735568549863,39.763999938964844,0.04839999973773956,0.0,0.0,0.0,0.044099997729063034,0.0,0.0,0.0,0.43560004234313965,2
1638862315000000000,475,1638862315000000000,gnss0,0,7,30.531023723964548,114.35735641383201,39.73299980163574,0.05290000140666962,0.0,0.0,0.0,0.044099997729063034,0.0,0.0,0.0,0.4489000141620636,2
1638862316000000000,476,1638862316000000000,gnss0,0,7,30.531036598962654,114.35735831216546,39.63400077819824,0.05290000140666962,0.0,0.0,0.0,0.044099997729063034,0.0,0.0,0.0,0.4489000141620636,2
1638862317000000000,477,1638862317000000000,gnss0,0,7,30.531048865630094,114.35735799549877,39.606000900268555,0.05290000140666962,0.0,0.0,0.0,0.044099997729063034,0.0,0.0,0.0,0.4489000141620636,2
1638862318000000000,478,1638862318000000000,gnss0,0,7,30.53106191729736,114.35735726549868,39.63999938964844,0.05290000140666962,0.0,0.0,0.0,0.044099997729063034,0.0,0.0,0.0,0.4489000141620636,2
1638862319000000000,479,1638862319000000000,gnss0,0,7,30.53107515896463,114.35735628716535,39.5629997253418,0.05290000140666962,0.0,0.0,0.0,0.044099997729063034,0.0,0.0,0.0,0.46240001916885376,2
1638862320000000000,480,1638862320000000000,gnss0,0,7,30.531088213965255,114.35735671716535,39.56100082397461,0.05290000140666962,0.0,0.0,0.0,0.044099997729063034,0.0,0.0,0.0,0.46240001916885376,2
1638862321000000000,481,1638862321000000000,gnss0,0,7,30.531100708965788,114.35735626216533,39.51799964904785,0.05290000140666962,0.0,0.0,0.0,0.044099997729063034,0.0,0.0,0.0,0.46240001916885376,2
1638862322000000000,482,1638862322000000000,gnss0,0,7,30.531112930633263,114.35735270383178,39.53899955749512,0.05290000140666962,0.0,0.0,0.0,0.044099997729063034,0.0,0.0,0.0,0.46240001916885376,2
1638862323000000000,483,1638862323000000000,gnss0,0,7,30.531126292300545,114.3573529571651,39.47999954223633,0.05290000140666962,0.0,0.0,0.0,0.044099997729063034,0.0,0.0,0.0,0.46240001916885376,2
1638862324000000000,484,1638862324000000000,gnss0,0,7,30.531138792301103,114.35735650049872,39.496999740600586,0.05290000140666962,0.0,0.0,0.0,0.044099997729063034,0.0,0.0,0.0,0.46240001916885376,2
1638862325000000000,485,1638862325000000000,gnss0,0,7,30.53115104563498,114.357356858832,39.46199989318848,0.05290000140666962,0.0,0.0,0.0,0.044099997729063034,0.0,0.0,0.0,0.46240001916885376,2
1638862326000000000,486,1638862326000000000,gnss0,0,7,30.53116458730253,114.35735719216537,39.465999603271484,0.05290000140666962,0.0,0.0,0.0,0.044099997729063034,0.0,0.0,0.0,0.46240001916885376,2
1638862327000000000,487,1638862327000000000,gnss0,0,7,30.531177508969773,114.3573575171654,39.472999572753906,0.05290000140666962,0.0,0.0,0.0,0.044099997729063034,0.0,0.0,0.0,0.47609999775886536,2
1638862328000000000,488,1638862328000000000,gnss0,0,7,30.53119064897038,114.35735843383212,39.46500015258789,0.05290000140666962,0.0,0.0,0.0,0.04839999973773956,0.0,0.0,0.0,0.47609999775886536,2
1638862329000000000,489,1638862329000000000,gnss0,0,7,30.531203520635135,114.35735920383217,39.40800094604492,0.05290000140666962,0.0,0.0,0.0,0.04839999973773956,0.0,0.0,0.0,0.47609999775886536,2
1638862330000000000,490,1638862330000000000,gnss0,0,7,30.53121571896926,114.35735793216541,39.48900032043457,0.05290000140666962,0.0,0.0,0.0,0.04839999973773956,0.0,0.0,0.0,0.4899999797344208,2
1638862331000000000,491,1638862331000000000,gnss0,0,7,30.531229002303217,114.35735807216544,39.38599967956543,0.05290000140666962,0.0,0.0,0.0,0.04839999973773956,0.0,0.0,0.0,0.4899999797344208,2
1638862332000000000,492,1638862332000000000,gnss0,0,7,30.53124187897045,114.35735960716552,39.52799987792969,0.05290000140666962,0.0,0.0,0.0,0.04839999973773956,0.0,0.0,0.0,0.50409996509552,2
1638862333000000000,493,1638862333000000000,gnss0,0,7,30.531254410637693,114.35736043883223,39.57900047302246,0.0575999990105629,0.0,0.0,0.0,0.05290000140666962,0.0,0.0,0.0,0.50409996509552,2
1638862334000000000,494,1638862334000000000,gnss0,0,7,30.53126692730491,114.35736006216557,39.47999954223633,0.0575999990105629,0.0,0.0,0.0,0.05290000140666962,0.0,0.0,0.0,0.50409996509552,2
1638862335000000000,495,1638862335000000000,gnss0,0,7,30.53127957397241,114.3573577838321,39.4640007019043,0.0575999990105629,0.0,0.0,0.0,0.05290000140666962,0.0,0.0,0.0,0.5184000134468079,2
1638862336000000000,496,1638862336000000000,gnss0,0,7,30.531292892306354,114.35735641883201,39.49099922180176,0.0575999990105629,0.0,0.0,0.0,0.05290000140666962,0.0,0.0,0.0,0.5184000134468079,2
1638862337000000000,497,1638862337000000000,gnss0,0,7,30.531305848973606,114.35735796216542,39.481000900268555,0.0575999990105629,0.0,0.0,0.0,0.05290000140666962,0.0,0.0,0.0,0.5329000353813171,2
1638862338000000000,498,1638862338000000000,gnss0,0,7,30.53131802564082,114.35735907549883,39.57600021362305,0.0575999990105629,0.0,0.0,0.0,0.05290000140666962,0.0,0.0,0.0,0.5329000353813171,2
1638862339000000000,499,1638862339000000000,gnss0,0,7,30.531331148975,114.35735881883214,39.507999420166016,0.0625,0.0,0.0,0.0,0.0575999990105629,0.0,0.0,0.0,0.5476000308990479,2
1638862340000000000,500,1638862340000000000,gnss0,0,7,30.531344315642265,114.35736063883225,39.44799995422363,0.0625,0.0,0.0,0.0,0.0575999990105629,0.0,0.0,0.0,0.5476000308990479,2
1638862341000000000,501,1638862341000000000,gnss0,0,7,30.531357012309503,114.35736108216562,39.47100067138672,0.0625,0.0,0.0,0.0,0.0575999990105629,0.0,0.0,0.0,0.5476000308990479,2
1638862342000000000,502,1638862342000000000,gnss0,0,7,30.531369880640952,114.3573598854989,39.430999755859375,0.0625,0.0,0.0,0.0,0.0575999990105629,0.0,0.0,0.0,0.5476000308990479,2
1638862343000000000,503,1638862343000000000,gnss0,0,7,30.531383110641805,114.35735922549885,39.295000076293945,0.0625,0.0,0.0,0.0,0.0575999990105629,0.0,0.0,0.0,0.5625,2
1638862344000000000,504,1638862344000000000,gnss0,0,7,30.5313958289757,114.35735931716552,39.354000091552734,0.0625,0.0,0.0,0.0,0.0575999990105629,0.0,0.0,0.0,0.5776000022888184,2
1638862345000000000,505,1638862345000000000,gnss0,0,7,30.531408160642933,114.35736077383227,39.398000717163086,0.0625,0.0,0.0,0.0,0.0575999990105629,0.0,0.0,0.0,0.5776000022888184,2
1638862346000000000,506,1638862346000000000,gnss0,0,7,30.53142083064349,114.35736100716564,39.37100028991699,0.06759999692440033,0.0,0.0,0.0,0.0575999990105629,0.0,0.0,0.0,0.5928999781608582,2
1638862347000000000,507,1638862347000000000,gnss0,0,7,30.53143349731072,114.35736070883229,39.29899978637695,0.06759999692440033,0.0,0.0,0.0,0.0625,0.0,0.0,0.0,0.5928999781608582,2
1638862348000000000,508,1638862348000000000,gnss0,0,7,30.531446792311577,114.35736118883229,39.371999740600586,0.06759999692440033,0.0,0.0,0.0,0.0625,0.0,0.0,0.0,0.5928999781608582,2
1638862349000000000,509,1638862349000000000,gnss0,0,7,30.531459810645522,114.35736188383235,39.26099967956543,0.06759999692440033,0.0,0.0,0.0,0.0625,0.0,0.0,0.0,0.6084000468254089,2
1638862350000000000,510,1638862350000000000,gnss0,0,7,30.53147242397942,114.35736269716574,39.22999954223633,0.07290000468492508,0.0,0.0,0.0,0.0625,0.0,0.0,0.0,0.6084000468254089,2
1638862351000000000,511,1638862351000000000,gnss0,0,7,30.531484940646664,114.35736240716571,39.347999572753906,0.07290000468492508,0.0,0.0,0.0,0.06759999692440033,0.0,0.0,0.0,0.6241000294685364,2
1638862352000000000,512,1638862352000000000,gnss0,0,7,30.53149768231414,114.35736186216567,39.43000030517578,0.07290000468492508,0.0,0.0,0.0,0.06759999692440033,0.0,0.0,0.0,0.64000004529953,2
1638862353000000000,513,1638862353000000000,gnss0,0,7,30.531510707314723,114.35736149883235,39.45100021362305,0.07290000468492508,0.0,0.0,0.0,0.06759999692440033,0.0,0.0,0.0,0.6560999751091003,2
1638862354000000000,514,1638862354000000000,gnss0,0,7,30.531523127315296,114.35736102883232,39.433000564575195,0.07840000092983246,0.0,0.0,0.0,0.06759999692440033,0.0,0.0,0.0,0.6560999751091003,2
1638862355000000000,515,1638862355000000000,gnss0,0,7,30.53153590564671,114.35736054883226,39.40999984741211,0.07840000092983246,0.0,0.0,0.0,0.06759999692440033,0.0,0.0,0.0,0.6560999751091003,2
1638862356000000000,516,1638862356000000000,gnss0,0,7,30.531548893980887,114.35736059549892,39.32600021362305,0.07840000092983246,0.0,0.0,0.0,0.06759999692440033,0.0,0.0,0.0,0.6723999977111816,2
1638862357000000000,517,1638862357000000000,gnss0,0,7,30.531561652314814,114.357361845499,39.277000427246094,0.07840000092983246,0.0,0.0,0.0,0.07290000468492508,0.0,0.0,0.0,0.6723999977111816,2
1638862358000000000,518,1638862358000000000,gnss0,0,7,30.531573987315355,114.35736310049911,39.27199935913086,0.07840000092983246,0.0,0.0,0.0,0.07290000468492508,0.0,0.0,0.0,0.6723999977111816,2
1638862359000000000,519,1638862359000000000,gnss0,0,7,30.53158687064926,114.35736300049912,39.18400001525879,0.07840000092983246,0.0,0.0,0.0,0.07290000468492508,0.0,0.0,0.0,0.6888999938964844,2
1638862360000000000,520,1638862360000000000,gnss0,0,7,30.531600018983195,114.35736307549911,39.11599922180176,0.07840000092983246,0.0,0.0,0.0,0.07290000468492508,0.0,0.0,0.0,0.6888999938964844,2
1638862361000000000,521,1638862361000000000,gnss0,0,7,30.531613055650723,114.35736230549902,39.11000061035156,0.07840000092983246,0.0,0.0,0.0,0.07290000468492508,0.0,0.0,0.0,0.7055999636650085,2
1638862362000000000,522,1638862362000000000,gnss0,0,7,30.531625895651292,114.35736255216572,39.14699935913086,0.07840000092983246,0.0,0.0,0.0,0.07290000468492508,0.0,0.0,0.0,0.7055999636650085,2
1638862363000000000,523,1638862363000000000,gnss0,0,7,30.531639127318574,114.35736327049912,38.9950008392334,0.08409999310970306,0.0,0.0,0.0,0.07290000468492508,0.0,0.0,0.0,0.7225000262260437,2
1638862364000000000,524,1638862364000000000,gnss0,0,7,30.531652233985834,114.35736317049914,38.88999938964844,0.08409999310970306,0.0,0.0,0.0,0.07840000092983246,0.0,0.0,0.0,0.7396000027656555,2
1638862365000000000,525,1638862365000000000,gnss0,0,7,30.53166454065331,114.35736176716567,39.114999771118164,0.08409999310970306,0.0,0.0,0.0,0.07840000092983246,0.0,0.0,0.0,0.7396000027656555,2
1638862366000000000,526,1638862366000000000,gnss0,0,7,30.53167765232057,114.35736140883233,39.209999084472656,0.08409999310970306,0.0,0.0,0.0,0.07840000092983246,0.0,0.0,0.0,0.7569000124931335,2
1638862367000000000,527,1638862367000000000,gnss0,0,7,30.531690550654492,114.35736148883234,39.10799980163574,0.08409999310970306,0.0,0.0,0.0,0.07840000092983246,0.0,0.0,0.0,0.7569000124931335,2
1638862368000000000,528,1638862368000000000,gnss0,0,7,30.53170305565257,114.35736051883224,39.121999740600586,0.08409999310970306,0.0,0.0,0.0,0.07840000092983246,0.0,0.0,0.0,0.774399995803833,2
1638862369000000000,529,1638862369000000000,gnss0,0,7,30.531716242320087,114.35736042216556,39.19300079345703,0.08409999310970306,0.0,0.0,0.0,0.07840000092983246,0.0,0.0,0.0,0.774399995803833,2
1638862370000000000,530,1638862370000000000,gnss0,0,7,30.53172905398733,114.35736096049894,39.180999755859375,0.09000000357627869,0.0,0.0,0.0,0.08409999310970306,0.0,0.0,0.0,0.7920999526977539,2
1638862371000000000,531,1638862371000000000,gnss0,0,7,30.531741727321222,114.35736077549896,39.27000045776367,0.09000000357627869,0.0,0.0,0.0,0.08409999310970306,0.0,0.0,0.0,0.7920999526977539,2
1638862372000000000,532,1638862372000000000,gnss0,0,7,30.53175482732185,114.35736084216562,39.19000053405762,0.09000000357627869,0.0,0.0,0.0,0.08409999310970306,0.0,0.0,0.0,0.7920999526977539,2
1638862373000000000,533,1638862373000000000,gnss0,0,7,30.53176792398911,114.35736009216556,39.22200012207031,0.09000000357627869,0.0,0.0,0.0,0.08409999310970306,0.0,0.0,0.0,0.7920999526977539,2
1638862374000000000,534,1638862374000000000,gnss0,0,7,30.531780872323264,114.35736028216556,39.17499923706055,0.09000000357627869,0.0,0.0,0.0,0.08409999310970306,0.0,0.0,0.0,0.809999942779541,2
1638862375000000000,535,1638862375000000000,gnss0,0,7,30.531793898990525,114.3573612538323,39.13400077819824,0.09000000357627869,0.0,0.0,0.0,0.08409999310970306,0.0,0.0,0.0,0.809999942779541,2
1638862376000000000,536,1638862376000000000,gnss0,0,7,30.53180654899112,114.35736166216569,39.15500068664551,0.09000000357627869,0.0,0.0,0.0,0.08409999310970306,0.0,0.0,0.0,0.809999942779541,2
1638862377000000000,537,1638862377000000000,gnss0,0,7,30.53181900065833,114.35736162549901,39.09900093078613,0.09000000357627869,0.0,0.0,0.0,0.08409999310970306,0.0,0.0,0.0,0.809999942779541,2
1638862378000000000,538,1638862378000000000,gnss0,0,7,30.53183167565917,114.35735969716555,39.06399917602539,0.09000000357627869,0.0,0.0,0.0,0.08409999310970306,0.0,0.0,0.0,0.809999942779541,2
1638862379000000000,539,1638862379000000000,gnss0,0,7,30.531844705659747,114.35735988883222,38.981000900268555,0.09000000357627869,0.0,0.0,0.0,0.08409999310970306,0.0,0.0,0.0,0.809999942779541,2
1638862380000000000,540,1638862380000000000,gnss0,0,7,30.531857675660344,114.3573609271656,39.00699996948242,0.09000000357627869,0.0,0.0,0.0,0.08409999310970306,0.0,0.0,0.0,0.809999942779541,2
1638862381000000000,541,1638862381000000000,gnss0,0,7,30.531870673966946,114.35736223383239,39.023000717163086,0.09000000357627869,0.0,0.0,0.0,0.08409999310970306,0.0,0.0,0.0,0.8281000256538391,2
1638862382000000000,542,1638862382000000000,gnss0,-1,7,30.531893662301503,114.35735815883214,38.5049991607666,0.2703999876976013,0.0,0.0,0.0,0.19359999895095825,0.0,0.0,0.0,1.8225001096725464,2
