%time,field.header.seq,field.header.stamp,field.header.frame_id,field.status.status,field.status.service,field.latitude,field.longitude,field.altitude,field.position_covariance0,field.position_covariance1,field.position_covariance2,field.position_covariance3,field.position_covariance4,field.position_covariance5,field.position_covariance6,field.position_covariance7,field.position_covariance8,field.position_covariance_type
1559193233131255651,0,1559193233131255651,vrs_gps,0,3,37.397073926666664,127.10720705500002,46.514,0.0012250000000000002,0.0,0.0,0.0,0.0011560000000000001,0.0,0.0,0.0,0.008649,2
1559193234130166271,1,1559193234130166271,vrs_gps,0,3,37.397073905,127.10720701166669,46.5271,0.0012250000000000002,0.0,0.0,0.0,0.0011560000000000001,0.0,0.0,0.0,0.008649,2
1559193235130535445,2,1559193235130535445,vrs_gps,0,3,37.39707389833333,127.10720700666667,46.5201,0.0012250000000000002,0.0,0.0,0.0,0.0011560000000000001,0.0,0.0,0.0,0.008836,2
1559193236131044892,3,1559193236131044892,vrs_gps,0,3,37.39707448,127.10720699333334,46.5312,0.0012250000000000002,0.0,0.0,0.0,0.0011560000000000001,0.0,0.0,0.0,0.008649,2
1559193237131584071,4,1559193237131584071,vrs_gps,0,3,37.397080800000005,127.10720740000001,46.494,0.0011560000000000001,0.0,0.0,0.0,0.0010890000000000001,0.0,0.0,0.0,0.008464,2
1559193238130293904,5,1559193238130293904,vrs_gps,0,3,37.397095998333334,127.10720779666666,46.4524,0.0011560000000000001,0.0,0.0,0.0,0.0010890000000000001,0.0,0.0,0.0,0.0081,2
1559193239130491219,6,1559193239130491219,vrs_gps,0,3,37.397119085,127.10720839833333,46.4179,0.0012959999999999998,0.0,0.0,0.0,0.0010890000000000001,0.0,0.0,0.0,0.008649,2
1559193240131222624,7,1559193240131222624,vrs_gps,0,3,37.39714863166667,127.10720907000001,46.3716,0.0012959999999999998,0.0,0.0,0.0,0.0010890000000000001,0.0,0.0,0.0,0.008464,2
1559193241132936403,8,1559193241132936403,vrs_gps,0,3,37.397183303333335,127.10720983666667,46.3659,0.0008410000000000001,0.0,0.0,0.0,0.0008410000000000001,0.0,0.0,0.0,0.0043560000000000005,2
1559193242129584805,9,1559193242129584805,vrs_gps,0,3,37.39722252166666,127.10721040499999,46.343,0.0008410000000000001,0.0,0.0,0.0,0.0009,0.0,0.0,0.0,0.0046240000000000005,2
1559193243131857703,10,1559193243131857703,vrs_gps,0,3,37.39726607666667,127.10721113166667,46.1968,0.0013689999999999998,0.0,0.0,0.0,0.001024,0.0,0.0,0.0,0.004489000000000001,2
1559193244130587174,11,1559193244130587174,vrs_gps,0,3,37.397313595,127.10721267833333,45.8899,0.0012250000000000002,0.0,0.0,0.0,0.001024,0.0,0.0,0.0,0.0043560000000000005,2
1559193245130882779,12,1559193245130882779,vrs_gps,0,3,37.397364765,127.10721272666666,45.7771,0.0012250000000000002,0.0,0.0,0.0,0.001024,0.0,0.0,0.0,0.004489000000000001,2
1559193246129548594,13,1559193246129548594,vrs_gps,0,3,37.397422515,127.10721698333333,45.4485,1.7239689999999999,0.0,0.0,0.0,1.4089690000000001,0.0,0.0,0.0,5.987809,2
1559193247129965345,14,1559193247129965345,vrs_gps,0,3,37.39748040166667,127.10721604333334,45.6768,1.089936,0.0,0.0,0.0,0.758641,0.0,0.0,0.0,2.842596,2
1559193248130553757,15,1559193248130553757,vrs_gps,0,3,37.39754052333333,127.10721548666668,45.5856,1.089936,0.0,0.0,0.0,0.760384,0.0,0.0,0.0,2.845969,2
1559193249130232694,16,1559193249130232694,vrs_gps,0,3,37.39760481333334,127.10721362000001,45.6279,1.089936,0.0,0.0,0.0,0.760384,0.0,0.0,0.0,2.845969,2
1559193250129899197,17,1559193250129899197,vrs_gps,0,3,37.39767064833333,127.10721208499999,45.5835,1.089936,0.0,0.0,0.0,0.760384,0.0,0.0,0.0,2.849344,2
1559193251136312856,18,1559193251136312856,vrs_gps,0,3,37.39773731166667,127.10721095833333,45.5272,1.0920249999999998,0.0,0.0,0.0,0.760384,0.0,0.0,0.0,2.8527210000000003,2
1559193252135956053,19,1559193252135956053,vrs_gps,0,3,37.397804664999995,127.10720963,45.4727,1.0920249999999998,0.0,0.0,0.0,0.760384,0.0,0.0,0.0,2.8527210000000003,2
1559193253132687283,20,1559193253132687283,vrs_gps,0,3,37.397872854999996,127.10720830500001,45.4162,1.0920249999999998,0.0,0.0,0.0,0.760384,0.0,0.0,0.0,2.8560999999999996,2
1559193254129200973,21,1559193254129200973,vrs_gps,0,3,37.39794190833334,127.10720547999999,45.3645,1.094116,0.0,0.0,0.0,0.760384,0.0,0.0,0.0,2.859481,2
1559193255129948541,22,1559193255129948541,vrs_gps,0,3,37.39801154166666,127.10720110833333,45.3411,1.094116,0.0,0.0,0.0,0.760384,0.0,0.0,0.0,2.859481,2
1559193256131176072,23,1559193256131176072,vrs_gps,0,3,37.39808221,127.10719471166666,45.2879,1.094116,0.0,0.0,0.0,0.760384,0.0,0.0,0.0,2.8628639999999996,2
1559193257129467190,24,1559193257129467190,vrs_gps,0,3,37.39815407833333,127.10718639999999,45.235,1.094116,0.0,0.0,0.0,0.760384,0.0,0.0,0.0,2.8662490000000003,2
1559193258129911001,25,1559193258129911001,vrs_gps,0,3,37.39822701666667,127.10717637666667,45.1859,1.0962089999999998,0.0,0.0,0.0,0.760384,0.0,0.0,0.0,2.8662490000000003,2
1559193259129542781,26,1559193259129542781,vrs_gps,0,3,37.39830105333333,127.10716474333334,45.1745,1.0962089999999998,0.0,0.0,0.0,0.760384,0.0,0.0,0.0,2.869636,2
1559193260129403885,27,1559193260129403885,vrs_gps,0,3,37.398376665,127.10715225666667,45.0836,1.0962089999999998,0.0,0.0,0.0,0.760384,0.0,0.0,0.0,2.873025,2
1559193261130086572,28,1559193261130086572,vrs_gps,0,3,37.398453805,127.10713846333334,45.0496,1.0962089999999998,0.0,0.0,0.0,0.762129,0.0,0.0,0.0,2.876416,2
1559193262129635816,29,1559193262129635816,vrs_gps,0,3,37.39852723166667,127.10711995333334,45.1299,0.00044100000000000004,0.0,0.0,0.0,0.0004,0.0,0.0,0.0,0.0016810000000000002,2
1559193263130689633,30,1559193263130689633,vrs_gps,0,3,37.398603855000005,127.10710226333335,45.0803,0.000676,0.0,0.0,0.0,0.000576,0.0,0.0,0.0,0.002209,2
1559193264130947350,31,1559193264130947350,vrs_gps,0,3,37.398679431666665,127.10708210166668,45.0247,0.000676,0.0,0.0,0.0,0.0006250000000000001,0.0,0.0,0.0,0.0024010000000000004,2
1559193265129909919,32,1559193265129909919,vrs_gps,0,3,37.398754035,127.10705792166667,45.0153,0.0007289999999999999,0.0,0.0,0.0,0.000676,0.0,0.0,0.0,0.002704,2
1559193266130578201,33,1559193266130578201,vrs_gps,0,3,37.398827399999995,127.10703083166666,44.8868,0.0007840000000000001,0.0,0.0,0.0,0.0007840000000000001,0.0,0.0,0.0,0.002704,2
1559193267130271015,34,1559193267130271015,vrs_gps,0,3,37.398899235,127.10700100166666,44.9065,0.000676,0.0,0.0,0.0,0.0006250000000000001,0.0,0.0,0.0,0.0025000000000000005,2
1559193268129736055,35,1559193268129736055,vrs_gps,0,3,37.39896840666667,127.10697100500002,44.8648,0.000676,0.0,0.0,0.0,0.0006250000000000001,0.0,0.0,0.0,0.0025000000000000005,2
1559193269129959579,36,1559193269129959579,vrs_gps,0,3,37.399034609999994,127.106942405,44.8636,0.0004,0.0,0.0,0.0,0.00048399999999999995,0.0,0.0,0.0,0.002304,2
1559193270130729135,37,1559193270130729135,vrs_gps,0,3,37.39909829333333,127.10691610666666,44.8172,0.00044100000000000004,0.0,0.0,0.0,0.00048399999999999995,0.0,0.0,0.0,0.002304,2
1559193271130411058,38,1559193271130411058,vrs_gps,0,3,37.39915829666666,127.10689036333333,44.7807,0.00044100000000000004,0.0,0.0,0.0,0.00048399999999999995,0.0,0.0,0.0,0.0024010000000000004,2
1559193272129930980,39,1559193272129930980,vrs_gps,0,3,37.39921369666667,127.10686589833334,44.7979,0.0004,0.0,0.0,0.0,0.00044100000000000004,0.0,0.0,0.0,0.002304,2
1559193273130094519,40,1559193273130094519,vrs_gps,0,3,37.39926487666666,127.10684332000001,44.8322,0.00044100000000000004,0.0,0.0,0.0,0.00048399999999999995,0.0,0.0,0.0,0.002209,2
1559193274130383847,41,1559193274130383847,vrs_gps,0,3,37.39931111,127.10682286000001,44.8632,0.0004,0.0,0.0,0.0,0.00048399999999999995,0.0,0.0,0.0,0.002304,2
1559193275129734517,42,1559193275129734517,vrs_gps,0,3,37.3993511,127.106804955,44.8937,0.00044100000000000004,0.0,0.0,0.0,0.00044100000000000004,0.0,0.0,0.0,0.002304,2
1559193276129290137,43,1559193276129290137,vrs_gps,0,3,37.39938514,127.10678960333334,44.9245,0.0004,0.0,0.0,0.0,0.00044100000000000004,0.0,0.0,0.0,0.002304,2
1559193277135868595,44,1559193277135868595,vrs_gps,0,3,37.39941432666667,127.10677668499999,44.95,0.0004,0.0,0.0,0.0,0.00044100000000000004,0.0,0.0,0.0,0.002209,2
1559193278136282040,45,1559193278136282040,vrs_gps,0,3,37.39943994833333,127.10676550166666,44.9584,0.0004,0.0,0.0,0.0,0.00044100000000000004,0.0,0.0,0.0,0.002304,2
1559193279133393191,46,1559193279133393191,vrs_gps,0,3,37.399462119999995,127.10675593666669,44.9775,0.0004,0.0,0.0,0.0,0.00044100000000000004,0.0,0.0,0.0,0.002209,2
1559193280129567735,47,1559193280129567735,vrs_gps,0,3,37.399480795,127.10674788,44.9797,0.0004,0.0,0.0,0.0,0.00044100000000000004,0.0,0.0,0.0,0.002209,2
1559193281129789256,48,1559193281129789256,vrs_gps,0,3,37.39949374333333,127.10674222833335,44.9776,0.0004,0.0,0.0,0.0,0.00044100000000000004,0.0,0.0,0.0,0.002025,2
1559193282130589703,49,1559193282130589703,vrs_gps,0,3,37.399501631666666,127.10673873833333,44.9765,0.000361,0.0,0.0,0.0,0.0004,0.0,0.0,0.0,0.002025,2
1559193283130724664,50,1559193283130724664,vrs_gps,0,3,37.39950664166667,127.10673653999999,44.9717,0.0004,0.0,0.0,0.0,0.00044100000000000004,0.0,0.0,0.0,0.002025,2
1559193284129316614,51,1559193284129316614,vrs_gps,0,3,37.39950872,127.10673562666668,44.9719,0.000361,0.0,0.0,0.0,0.0004,0.0,0.0,0.0,0.002025,2
1559193285129833417,52,1559193285129833417,vrs_gps,0,3,37.39950949666666,127.10673518833333,44.9912,0.000361,0.0,0.0,0.0,0.0004,0.0,0.0,0.0,0.0019359999999999998,2
1559193286130345353,53,1559193286130345353,vrs_gps,0,3,37.39950957333333,127.10673522666666,44.9856,0.000361,0.0,0.0,0.0,0.0004,0.0,0.0,0.0,0.0019359999999999998,2
1559193287129949142,54,1559193287129949142,vrs_gps,0,3,37.399509566666666,127.10673520166665,44.9903,0.000361,0.0,0.0,0.0,0.0004,0.0,0.0,0.0,0.0019359999999999998,2
1559193288129825692,55,1559193288129825692,vrs_gps,0,3,37.39950950666666,127.10673527333331,44.9654,0.000361,0.0,0.0,0.0,0.0004,0.0,0.0,0.0,0.0019359999999999998,2
1559193289130444557,56,1559193289130444557,vrs_gps,0,3,37.39950956333333,127.10673523166666,44.9731,0.00032399999999999996,0.0,0.0,0.0,0.000361,0.0,0.0,0.0,0.0018489999999999997,2
1559193290130296033,57,1559193290130296033,vrs_gps,0,3,37.399509583333334,127.10673524333333,44.9761,0.00032399999999999996,0.0,0.0,0.0,0.000361,0.0,0.0,0.0,0.0018489999999999997,2
1559193291129567137,58,1559193291129567137,vrs_gps,0,3,37.399509540000004,127.10673527499999,44.9703,0.00032399999999999996,0.0,0.0,0.0,0.000361,0.0,0.0,0.0,0.0018489999999999997,2
1559193292129362783,59,1559193292129362783,vrs_gps,0,3,37.39950959,127.10673526500001,44.9766,0.00032399999999999996,0.0,0.0,0.0,0.000361,0.0,0.0,0.0,0.0018489999999999997,2
1559193293130084937,60,1559193293130084937,vrs_gps,0,3,37.399509605000006,127.10673524666666,44.9876,0.00032399999999999996,0.0,0.0,0.0,0.000361,0.0,0.0,0.0,0.0017640000000000002,2
1559193294130372328,61,1559193294130372328,vrs_gps,0,3,37.39950964166667,127.10673522666666,44.9854,0.00032399999999999996,0.0,0.0,0.0,0.000361,0.0,0.0,0.0,0.0018489999999999997,2
1559193295129456857,62,1559193295129456857,vrs_gps,0,3,37.399509638333335,127.10673524166666,44.9986,0.00032399999999999996,0.0,0.0,0.0,0.000361,0.0,0.0,0.0,0.0018489999999999997,2
1559193296129525302,63,1559193296129525302,vrs_gps,0,3,37.39950957666667,127.10673523166666,44.9874,0.00032399999999999996,0.0,0.0,0.0,0.000361,0.0,0.0,0.0,0.0018489999999999997,2
1559193297130043887,64,1559193297130043887,vrs_gps,0,3,37.399509585000004,127.10673519333335,45.0016,0.00032399999999999996,0.0,0.0,0.0,0.000361,0.0,0.0,0.0,0.0018489999999999997,2
1559193298130356297,65,1559193298130356297,vrs_gps,0,3,37.39950956,127.10673520999998,45.0016,0.00032399999999999996,0.0,0.0,0.0,0.000361,0.0,0.0,0.0,0.0018489999999999997,2
1559193299129526701,66,1559193299129526701,vrs_gps,0,3,37.39950958,127.10673520166665,44.9905,0.00032399999999999996,0.0,0.0,0.0,0.000361,0.0,0.0,0.0,0.0018489999999999997,2
1559193300129646562,67,1559193300129646562,vrs_gps,0,3,37.399509601666665,127.10673520166665,44.9978,0.00032399999999999996,0.0,0.0,0.0,0.000361,0.0,0.0,0.0,0.0017640000000000002,2
1559193301129731261,68,1559193301129731261,vrs_gps,0,3,37.39950959333333,127.10673523833333,44.9838,0.00032399999999999996,0.0,0.0,0.0,0.000361,0.0,0.0,0.0,0.0018489999999999997,2
1559193302128610466,69,1559193302128610466,vrs_gps,0,3,37.39950962666667,127.10673522,44.9813,0.00032399999999999996,0.0,0.0,0.0,0.000361,0.0,0.0,0.0,0.0017640000000000002,2
1559193303135327045,70,1559193303135327045,vrs_gps,0,3,37.3995096,127.10673521166667,44.9868,0.00028900000000000003,0.0,0.0,0.0,0.000361,0.0,0.0,0.0,0.0016810000000000002,2
1559193304136125562,71,1559193304136125562,vrs_gps,0,3,37.39950960833333,127.10673519666668,44.9865,0.00032399999999999996,0.0,0.0,0.0,0.000361,0.0,0.0,0.0,0.0017640000000000002,2
1559193305132112205,72,1559193305132112205,vrs_gps,0,3,37.399509595000005,127.10673518166668,44.9979,0.00032399999999999996,0.0,0.0,0.0,0.000361,0.0,0.0,0.0,0.0018489999999999997,2
1559193306129359403,73,1559193306129359403,vrs_gps,0,3,37.39950960666667,127.10673514999999,44.9911,0.00032399999999999996,0.0,0.0,0.0,0.000361,0.0,0.0,0.0,0.0018489999999999997,2
1559193307129480159,74,1559193307129480159,vrs_gps,0,3,37.399509611666666,127.106735175,44.9897,0.00032399999999999996,0.0,0.0,0.0,0.0004,0.0,0.0,0.0,0.0019359999999999998,2
1559193308129671887,75,1559193308129671887,vrs_gps,0,3,37.39950964166667,127.106735185,44.9884,0.00032399999999999996,0.0,0.0,0.0,0.0004,0.0,0.0,0.0,0.0019359999999999998,2
1559193309129261916,76,1559193309129261916,vrs_gps,0,3,37.399509585000004,127.10673517666667,44.99,0.00032399999999999996,0.0,0.0,0.0,0.0004,0.0,0.0,0.0,0.0019359999999999998,2
1559193310128823679,77,1559193310128823679,vrs_gps,0,3,37.39951204666667,127.10673415000001,44.9743,0.000361,0.0,0.0,0.0,0.0004,0.0,0.0,0.0,0.0019359999999999998,2
1559193311129211287,78,1559193311129211287,vrs_gps,0,3,37.39952103166667,127.10673006666666,44.9926,0.00032399999999999996,0.0,0.0,0.0,0.0004,0.0,0.0,0.0,0.0019359999999999998,2
1559193312129405378,79,1559193312129405378,vrs_gps,0,3,37.399539366666666,127.10672202166667,45.0023,0.000361,0.0,0.0,0.0,0.0004,0.0,0.0,0.0,0.0019359999999999998,2
1559193313129683840,80,1559193313129683840,vrs_gps,0,3,37.399568413333334,127.10670915166665,45.0147,0.00032399999999999996,0.0,0.0,0.0,0.000361,0.0,0.0,0.0,0.0018489999999999997,2
1559193314129338456,81,1559193314129338456,vrs_gps,0,3,37.399606856666665,127.10669212333332,45.0597,0.000361,0.0,0.0,0.0,0.0004,0.0,0.0,0.0,0.002116,2
1559193315129182926,82,1559193315129182926,vrs_gps,0,3,37.399651840000004,127.10667256166668,45.0767,0.000361,0.0,0.0,0.0,0.0004,0.0,0.0,0.0,0.0019359999999999998,2
1559193316129923247,83,1559193316129923247,vrs_gps,0,3,37.399702785,127.10665040166666,45.0943,0.000361,0.0,0.0,0.0,0.0004,0.0,0.0,0.0,0.002025,2
1559193317128799303,84,1559193317128799303,vrs_gps,0,3,37.399758515,127.10662588833333,45.1163,0.000361,0.0,0.0,0.0,0.0004,0.0,0.0,0.0,0.002025,2
1559193318128631201,85,1559193318128631201,vrs_gps,0,3,37.39981829,127.10659890333334,45.1243,0.0004,0.0,0.0,0.0,0.000529,0.0,0.0,0.0,0.002209,2
1559193319128683032,86,1559193319128683032,vrs_gps,0,3,37.399883065000004,127.10656978166665,45.156,0.0012250000000000002,0.0,0.0,0.0,0.001521,0.0,0.0,0.0,0.007225000000000001,2
1559193320129108431,87,1559193320129108431,vrs_gps,0,3,37.39995249833333,127.10653810833334,45.1433,0.0016810000000000002,0.0,0.0,0.0,0.0016,0.0,0.0,0.0,0.006561,2
1559193321128736651,88,1559193321128736651,vrs_gps,0,3,37.40002598833333,127.10650421333334,45.195,0.001444,0.0,0.0,0.0,0.001444,0.0,0.0,0.0,0.005776,2
1559193322128611903,89,1559193322128611903,vrs_gps,0,3,37.400103818333335,127.10646756666665,45.2672,0.0013689999999999998,0.0,0.0,0.0,0.0012959999999999998,0.0,0.0,0.0,0.005183999999999999,2
1559193323130366390,90,1559193323130366390,vrs_gps,0,3,37.40018629666667,127.10643040666668,45.3319,0.0013689999999999998,0.0,0.0,0.0,0.0012959999999999998,0.0,0.0,0.0,0.005183999999999999,2
1559193324130260636,91,1559193324130260636,vrs_gps,0,3,37.40027323666666,127.10639219666668,45.3655,0.0012959999999999998,0.0,0.0,0.0,0.0012250000000000002,0.0,0.0,0.0,0.0046240000000000005,2
1559193325127754536,92,1559193325127754536,vrs_gps,0,3,37.400363365,127.106352435,45.505,0.0012959999999999998,0.0,0.0,0.0,0.0011560000000000001,0.0,0.0,0.0,0.0047610000000000005,2
1559193326127878165,93,1559193326127878165,vrs_gps,0,3,37.400455918333336,127.10631082833333,45.6547,0.0011560000000000001,0.0,0.0,0.0,0.0012250000000000002,0.0,0.0,0.0,0.0047610000000000005,2
1559193327128551411,94,1559193327128551411,vrs_gps,0,3,37.40055031,127.10626767000001,45.6709,0.0011560000000000001,0.0,0.0,0.0,0.0010890000000000001,0.0,0.0,0.0,0.004489000000000001,2
1559193328127493559,95,1559193328127493559,vrs_gps,0,3,37.400646665,127.106223125,45.7933,0.0011560000000000001,0.0,0.0,0.0,0.0010890000000000001,0.0,0.0,0.0,0.004489000000000001,2
1559193329132184696,96,1559193329132184696,vrs_gps,0,3,37.40074404166667,127.10617822,45.9217,0.0012250000000000002,0.0,0.0,0.0,0.0010890000000000001,0.0,0.0,0.0,0.004489000000000001,2
1559193330132340046,97,1559193330132340046,vrs_gps,0,3,37.40084241666667,127.10613358,46.0376,0.0012959999999999998,0.0,0.0,0.0,0.0010890000000000001,0.0,0.0,0.0,0.0047610000000000005,2
1559193331129065743,98,1559193331129065743,vrs_gps,0,3,37.40094232333333,127.10609030666667,45.9978,0.0013689999999999998,0.0,0.0,0.0,0.0010890000000000001,0.0,0.0,0.0,0.004900000000000001,2
1559193332127795726,99,1559193332127795726,vrs_gps,0,3,37.401043715,127.10604480166667,46.1961,0.0013689999999999998,0.0,0.0,0.0,0.0010890000000000001,0.0,0.0,0.0,0.0050409999999999995,2
1559193333127223677,100,1559193333127223677,vrs_gps,0,3,37.401145836666664,127.10599930333335,46.34,0.001521,0.0,0.0,0.0,0.0011560000000000001,0.0,0.0,0.0,0.005776,2
1559193334127844624,101,1559193334127844624,vrs_gps,0,3,37.40124854,127.10595375166668,46.4823,0.0016810000000000002,0.0,0.0,0.0,0.0012250000000000002,0.0,0.0,0.0,0.006724000000000001,2
1559193335128183389,102,1559193335128183389,vrs_gps,0,3,37.40135141,127.10590677999998,46.6159,0.0019359999999999998,0.0,0.0,0.0,0.0013689999999999998,0.0,0.0,0.0,0.008464,2
1559193336128136320,103,1559193336128136320,vrs_gps,0,3,37.4014541,127.105859035,46.818,0.002704,0.0,0.0,0.0,0.0016810000000000002,0.0,0.0,0.0,0.012996,2
1559193337127494521,104,1559193337127494521,vrs_gps,0,3,37.401556193333334,127.10581316666666,46.9763,0.005183999999999999,0.0,0.0,0.0,0.0019359999999999998,0.0,0.0,0.0,0.019880999999999996,2
1559193338117331232,105,1559193338117331232,vrs_gps,0,3,37.401556193333334,127.10581316666666,46.9763,0.005183999999999999,0.0,0.0,0.0,0.0019359999999999998,0.0,0.0,0.0,0.019880999999999996,2
1559193339117258695,106,1559193339117258695,vrs_gps,0,3,37.401556193333334,127.10581316666666,46.9763,0.005183999999999999,0.0,0.0,0.0,0.0019359999999999998,0.0,0.0,0.0,0.019880999999999996,2
1559193340117393706,107,1559193340117393706,vrs_gps,0,3,37.401556193333334,127.10581316666666,46.9763,0.005183999999999999,0.0,0.0,0.0,0.0019359999999999998,0.0,0.0,0.0,0.019880999999999996,2
1559193341116759208,108,1559193341116759208,vrs_gps,0,3,37.401556193333334,127.10581316666666,46.9763,0.005183999999999999,0.0,0.0,0.0,0.0019359999999999998,0.0,0.0,0.0,0.019880999999999996,2
1559193342117906813,109,1559193342117906813,vrs_gps,0,3,37.401556193333334,127.10581316666666,46.9763,0.005183999999999999,0.0,0.0,0.0,0.0019359999999999998,0.0,0.0,0.0,0.019880999999999996,2
1559193343118603723,110,1559193343118603723,vrs_gps,0,3,37.401556193333334,127.10581316666666,46.9763,0.005183999999999999,0.0,0.0,0.0,0.0019359999999999998,0.0,0.0,0.0,0.019880999999999996,2
1559193344125087641,111,1559193344125087641,vrs_gps,0,3,37.402235155,127.10553949666668,46.6858,19.333609000000003,0.0,0.0,0.0,5.345343999999999,0.0,0.0,0.0,124.055044,2
1559193345124475243,112,1559193345124475243,vrs_gps,0,3,37.402338191666665,127.10548881166666,44.8689,19.740248999999995,0.0,0.0,0.0,5.461569000000001,0.0,0.0,0.0,126.697536,2
1559193346124725788,113,1559193346124725788,vrs_gps,0,3,37.40244518,127.10543369,39.6841,23.078416000000004,0.0,0.0,0.0,7.017201,0.0,0.0,0.0,174.92707600000003,2
1559193347117373509,114,1559193347117373509,vrs_gps,0,3,37.40244518,127.10543369,39.6841,23.078416000000004,0.0,0.0,0.0,7.017201,0.0,0.0,0.0,174.92707600000003,2
1559193348117869000,115,1559193348117869000,vrs_gps,0,3,37.40244518,127.10543369,39.6841,23.078416000000004,0.0,0.0,0.0,7.017201,0.0,0.0,0.0,174.92707600000003,2
1559193349117673747,116,1559193349117673747,vrs_gps,0,3,37.40244518,127.10543369,39.6841,23.078416000000004,0.0,0.0,0.0,7.017201,0.0,0.0,0.0,174.92707600000003,2
1559193350124459396,117,1559193350124459396,vrs_gps,0,3,37.40270297833333,127.10537756166666,3.5138,26.020201,0.0,0.0,0.0,6.589489000000001,0.0,0.0,0.0,249.987721,2
1559193351124526438,118,1559193351124526438,vrs_gps,0,3,37.402778955,127.10534777333332,6.8331,25.583364,0.0,0.0,0.0,6.482115999999999,0.0,0.0,0.0,245.831041,2
1559193352125080020,119,1559193352125080020,vrs_gps,0,3,37.40284849666667,127.10532288166665,10.483,25.452025,0.0,0.0,0.0,6.4516,0.0,0.0,0.0,244.578321,2
1559193353125072460,120,1559193353125072460,vrs_gps,0,3,37.40291056666667,127.10530575666668,14.3086,25.482304,0.0,0.0,0.0,6.461763999999999,0.0,0.0,0.0,244.9225,2
1559193354125163786,121,1559193354125163786,vrs_gps,0,3,37.402964731666664,127.10531870833331,42.9021,27.594009,0.0,0.0,0.0,2.6764959999999998,0.0,0.0,0.0,81.577024,2
1559193355127689199,122,1559193355127689199,vrs_gps,0,3,37.40301665166667,127.10528821000001,47.2562,4.322241000000001,0.0,0.0,0.0,3.5343999999999998,0.0,0.0,0.0,30.713763999999998,2
1559193356127014982,123,1559193356127014982,vrs_gps,0,3,37.40305532166667,127.10532638833335,47.0287,3.9322890000000004,0.0,0.0,0.0,3.2148489999999996,0.0,0.0,0.0,27.931225,2
1559193357126511532,124,1559193357126511532,vrs_gps,0,3,37.403081560000004,127.10537426499998,46.7671,3.682561,0.0,0.0,0.0,3.0800249999999996,0.0,0.0,0.0,26.915343999999997,2
1559193358126779450,125,1559193358126779450,vrs_gps,0,3,37.40308986,127.10543674666665,47.786,1.179396,0.0,0.0,0.0,0.958441,0.0,0.0,0.0,19.864849,2
1559193359126849600,126,1559193359126849600,vrs_gps,0,3,37.403099155,127.10549518,48.1162,0.573049,0.0,0.0,0.0,0.4610410000000001,0.0,0.0,0.0,9.903609,2
1559193360127374054,127,1559193360127374054,vrs_gps,0,3,37.40309985,127.10556188666666,48.6707,1.567504,0.0,0.0,0.0,1.2144040000000003,0.0,0.0,0.0,11.195716000000001,2
1559193361127621205,128,1559193361127621205,vrs_gps,0,3,37.403100689999995,127.10563462500001,48.7234,1.6952040000000002,0.0,0.0,0.0,1.3409639999999998,0.0,0.0,0.0,12.138256,2
1559193362127045042,129,1559193362127045042,vrs_gps,0,3,37.403104983333336,127.105710355,48.7546,1.6205289999999997,0.0,0.0,0.0,1.4496159999999998,0.0,0.0,0.0,12.687843999999998,2
1559193363127475432,130,1559193363127475432,vrs_gps,0,3,37.403112220000004,127.10578900833335,48.8886,1.6563689999999998,0.0,0.0,0.0,1.6103609999999997,0.0,0.0,0.0,12.659363999999998,2
1559193364129596350,131,1559193364129596350,vrs_gps,0,3,37.403120515,127.10587167666667,48.9675,1.6563689999999998,0.0,0.0,0.0,1.6103609999999997,0.0,0.0,0.0,12.666481000000001,2
1559193365127875626,132,1559193365127875626,vrs_gps,0,3,37.403127051666665,127.10595921166666,48.9858,1.7503289999999998,0.0,0.0,0.0,1.3923999999999999,0.0,0.0,0.0,12.467961,2
1559193366126525137,133,1559193366126525137,vrs_gps,0,3,37.403131124999994,127.10605160833332,49.1259,1.752976,0.0,0.0,0.0,1.3923999999999999,0.0,0.0,0.0,12.475024,2
1559193367126634715,134,1559193367126634715,vrs_gps,0,3,37.403132590000006,127.10614807666667,49.221,1.752976,0.0,0.0,0.0,1.3923999999999999,0.0,0.0,0.0,12.482089,2
1559193368127707598,135,1559193368127707598,vrs_gps,0,3,37.40313281666667,127.10624862833335,49.3466,1.752976,0.0,0.0,0.0,1.3947610000000001,0.0,0.0,0.0,12.482089,2
1559193369126738461,136,1559193369126738461,vrs_gps,0,3,37.40313295166666,127.106353095,49.5097,1.752976,0.0,0.0,0.0,1.3947610000000001,0.0,0.0,0.0,12.489156,2
1559193370126963976,137,1559193370126963976,vrs_gps,0,3,37.40313318166667,127.10646094333333,49.7038,1.752976,0.0,0.0,0.0,1.3971239999999998,0.0,0.0,0.0,12.489156,2
1559193371126628383,138,1559193371126628383,vrs_gps,0,3,37.40313324,127.10657146666667,49.9475,1.752976,0.0,0.0,0.0,1.3971239999999998,0.0,0.0,0.0,12.496225,2
1559193372127350422,139,1559193372127350422,vrs_gps,0,3,37.403134095000006,127.10668380833334,50.2219,1.752976,0.0,0.0,0.0,1.3994890000000002,0.0,0.0,0.0,12.496225,2
1559193373125529496,140,1559193373125529496,vrs_gps,0,3,37.40311553666666,127.10681729166666,49.5295,3.818116,0.0,0.0,0.0,4.120899999999999,0.0,0.0,0.0,29.997529000000004,2
1559193374125028173,141,1559193374125028173,vrs_gps,0,3,37.40311508166667,127.10693016666667,50.2307,3.825936,0.0,0.0,0.0,4.129024,0.0,0.0,0.0,30.074256,2
1559193375125546534,142,1559193375125546534,vrs_gps,0,3,37.40311524166667,127.10704158166666,50.6926,3.833764,0.0,0.0,0.0,4.141225,0.0,0.0,0.0,30.140100000000004,2
1559193376124896149,143,1559193376124896149,vrs_gps,0,3,37.403115865000004,127.10715434000001,50.9254,3.8415999999999997,0.0,0.0,0.0,4.149369,0.0,0.0,0.0,30.184036,2
1559193377125185436,144,1559193377125185436,vrs_gps,0,3,37.403117605000006,127.10726790833333,51.1513,3.849444,0.0,0.0,0.0,4.157521000000001,0.0,0.0,0.0,30.228004000000002,2
1559193378125264047,145,1559193378125264047,vrs_gps,0,3,37.40314101166667,127.10737476166666,55.2663,3.8927290000000005,0.0,0.0,0.0,7.279204,0.0,0.0,0.0,50.126400000000004,2
1559193379125070732,146,1559193379125070732,vrs_gps,0,3,37.40314173833334,127.10748339666667,55.1794,3.884841,0.0,0.0,0.0,7.263024999999999,0.0,0.0,0.0,49.999041,2
1559193380124804890,147,1559193380124804890,vrs_gps,0,3,37.40313061833333,127.10759804333333,54.5876,8.567329,0.0,0.0,0.0,31.102929,0.0,0.0,0.0,61.402896000000005,2
1559193381129608108,148,1559193381129608108,vrs_gps,0,3,37.403141895,127.10770731166667,52.7092,25.250625000000003,0.0,0.0,0.0,8.375236000000001,0.0,0.0,0.0,255.552196,2
1559193382116552715,149,1559193382116552715,vrs_gps,0,3,37.403141895,127.10770731166667,52.7092,25.250625000000003,0.0,0.0,0.0,8.375236000000001,0.0,0.0,0.0,255.552196,2
1559193383116452188,150,1559193383116452188,vrs_gps,0,3,37.403141895,127.10770731166667,52.7092,25.250625000000003,0.0,0.0,0.0,8.375236000000001,0.0,0.0,0.0,255.552196,2
1559193384116755641,151,1559193384116755641,vrs_gps,0,3,37.403141895,127.10770731166667,52.7092,25.250625000000003,0.0,0.0,0.0,8.375236000000001,0.0,0.0,0.0,255.552196,2
1559193385124581693,152,1559193385124581693,vrs_gps,0,3,37.40313493166666,127.10811451333332,58.2141,20.286015999999996,0.0,0.0,0.0,14.175225000000001,0.0,0.0,0.0,225.06000400000002,2
1559193386124430774,153,1559193386124430774,vrs_gps,0,3,37.40315070333334,127.10818832499999,55.421,4.024035999999999,0.0,0.0,0.0,7.513081000000001,0.0,0.0,0.0,51.624224999999996,2
1559193387125305763,154,1559193387125305763,vrs_gps,0,3,37.40315197166667,127.10829370166667,54.9604,3.411409,0.0,0.0,0.0,6.5382489999999995,0.0,0.0,0.0,38.241856,2
1559193388124757230,155,1559193388124757230,vrs_gps,0,3,37.403153555,127.10840203499998,54.787,3.3233289999999998,0.0,0.0,0.0,6.375624999999999,0.0,0.0,0.0,37.27102500000001,2
1559193389124396198,156,1559193389124396198,vrs_gps,0,3,37.403146995,127.10851835333332,54.8926,3.7558439999999997,0.0,0.0,0.0,7.006608999999999,0.0,0.0,0.0,48.12196900000001,2
1559193390124393004,157,1559193390124393004,vrs_gps,0,3,37.403136445,127.10864012333334,53.9288,8.357881,0.0,0.0,0.0,30.470399999999994,0.0,0.0,0.0,59.228415999999996,2
1559193391123532793,158,1559193391123532793,vrs_gps,0,3,37.40313517833333,127.10876009,53.5647,8.323224999999999,0.0,0.0,0.0,30.349081000000005,0.0,0.0,0.0,58.905625,2
1559193392123963803,159,1559193392123963803,vrs_gps,0,3,37.40313501666667,127.10888181,53.335,8.265625,0.0,0.0,0.0,30.151080999999998,0.0,0.0,0.0,58.430736,2
1559193393124154459,160,1559193393124154459,vrs_gps,0,3,37.40313410666667,127.10900787166665,53.5346,8.259876,0.0,0.0,0.0,30.151080999999998,0.0,0.0,0.0,58.339044,2
1559193394123413295,161,1559193394123413295,vrs_gps,0,3,37.40313363,127.10913541500001,53.7892,8.277128999999999,0.0,0.0,0.0,30.239000999999995,0.0,0.0,0.0,58.415448999999995,2
1559193395124234063,162,1559193395124234063,vrs_gps,0,3,37.40313341,127.10926403166668,54.0473,8.300161,0.0,0.0,0.0,30.327048999999995,0.0,0.0,0.0,58.491904,2
1559193396124120064,163,1559193396124120064,vrs_gps,0,3,37.40313365666667,127.10939299833332,54.2993,8.282884000000001,0.0,0.0,0.0,30.272004,0.0,0.0,0.0,58.308496000000005,2
1559193397124171560,164,1559193397124171560,vrs_gps,0,3,37.403133098333335,127.10952077333334,54.1382,4.494400000000001,0.0,0.0,0.0,15.397776,0.0,0.0,0.0,56.38508100000001,2
1559193398124032435,165,1559193398124032435,vrs_gps,0,3,37.40313456,127.10964656666665,53.8241,4.4605440000000005,0.0,0.0,0.0,15.272464,0.0,0.0,0.0,55.920483999999995,2
1559193399124012356,166,1559193399124012356,vrs_gps,0,3,37.403135649999996,127.10977188,53.3966,4.4521,0.0,0.0,0.0,15.249024999999998,0.0,0.0,0.0,55.815841,2
1559193400124342338,167,1559193400124342338,vrs_gps,0,3,37.40314284833333,127.109893365,53.867,3.182656,0.0,0.0,0.0,6.081156000000001,0.0,0.0,0.0,35.581224999999996,2
1559193401124309414,168,1559193401124309414,vrs_gps,0,3,37.403142251666665,127.11001792666666,53.3317,3.0730089999999994,0.0,0.0,0.0,2.563201,0.0,0.0,0.0,22.401289,2
1559193402124573765,169,1559193402124573765,vrs_gps,0,3,37.403142025,127.11013572499999,52.7932,3.463321,0.0,0.0,0.0,3.568321,0.0,0.0,0.0,22.382361,2
1559193403124910148,170,1559193403124910148,vrs_gps,0,3,37.40313267666667,127.11023783,50.7041,3.5043840000000004,0.0,0.0,0.0,3.61,0.0,0.0,0.0,22.638564,2
1559193404124440875,171,1559193404124440875,vrs_gps,0,3,37.40314187833334,127.11031533166667,51.8824,4.502884,0.0,0.0,0.0,15.429184,0.0,0.0,0.0,56.38508100000001,2
1559193405124694399,172,1559193405124694399,vrs_gps,0,3,37.40314419833333,127.11037746666668,51.8018,4.515625,0.0,0.0,0.0,15.484225,0.0,0.0,0.0,56.580484000000006,2
1559193406123709734,173,1559193406123709734,vrs_gps,0,3,37.403130919999995,127.11043311833333,51.3623,8.265625,0.0,0.0,0.0,30.327048999999995,0.0,0.0,0.0,57.517056,2
1559193407127969092,174,1559193407127969092,vrs_gps,0,3,37.40313225,127.11046901833333,51.3813,8.254129,0.0,0.0,0.0,30.305025,0.0,0.0,0.0,57.380625,2
1559193408126901837,175,1559193408126901837,vrs_gps,0,3,37.40313402666666,127.110496315,51.5156,8.242641,0.0,0.0,0.0,30.272004,0.0,0.0,0.0,57.22922500000001,2
1559193409123457670,176,1559193409123457670,vrs_gps,0,3,37.40313509666667,127.11051978666667,51.5485,8.231161000000002,0.0,0.0,0.0,30.239000999999995,0.0,0.0,0.0,57.078025,2
1559193410123736649,177,1559193410123736649,vrs_gps,0,3,37.403135965000004,127.11054609,51.6022,8.219689,0.0,0.0,0.0,30.217008999999997,0.0,0.0,0.0,56.942116000000006,2
1559193411123808042,178,1559193411123808042,vrs_gps,0,3,37.40313589833333,127.11057969,51.6326,8.208225,0.0,0.0,0.0,30.195025,0.0,0.0,0.0,56.82144400000001,2
1559193412123599188,179,1559193412123599188,vrs_gps,0,3,37.40313600333333,127.11062173166665,51.6863,8.213956000000001,0.0,0.0,0.0,30.217008999999997,0.0,0.0,0.0,56.776225000000004,2
1559193413123227220,180,1559193413123227220,vrs_gps,0,3,37.40313573,127.11067327500001,51.684,8.242641,0.0,0.0,0.0,30.338064,0.0,0.0,0.0,56.911936,2
1559193414124249028,181,1559193414124249028,vrs_gps,0,3,37.40313482,127.1107265,51.6169,8.219689,0.0,0.0,0.0,30.261001000000004,0.0,0.0,0.0,56.685840999999996,2
1559193415124016792,182,1559193415124016792,vrs_gps,0,3,37.403134265,127.11076986833332,51.6604,8.208225,0.0,0.0,0.0,30.239000999999995,0.0,0.0,0.0,56.550399999999996,2
1559193416123820216,183,1559193416123820216,vrs_gps,0,3,37.403133795,127.110795475,51.6043,8.173881,0.0,0.0,0.0,30.129120999999998,0.0,0.0,0.0,56.25,2
1559193417123363432,184,1559193417123363432,vrs_gps,0,3,37.40313356,127.11080756666667,51.636,8.173881,0.0,0.0,0.0,30.129120999999998,0.0,0.0,0.0,56.160036,2
1559193418123828165,185,1559193418123828165,vrs_gps,0,3,37.40313397,127.11081945166667,51.6524,8.191044,0.0,0.0,0.0,30.206016000000005,0.0,0.0,0.0,56.235001,2
1559193419123724958,186,1559193419123724958,vrs_gps,0,3,37.40313467833333,127.11083202500001,51.6218,8.213956000000001,0.0,0.0,0.0,30.305025,0.0,0.0,0.0,56.31001599999999,2
1559193420123549548,187,1559193420123549548,vrs_gps,0,3,37.403135606666666,127.110846895,51.6821,8.242641,0.0,0.0,0.0,30.426256,0.0,0.0,0.0,56.460196,2
1559193421123751447,188,1559193421123751447,vrs_gps,0,3,37.40313756166667,127.11086476666667,51.63,8.265625,0.0,0.0,0.0,30.514576,0.0,0.0,0.0,56.535361,2
1559193422124125624,189,1559193422124125624,vrs_gps,0,3,37.403142046666666,127.11088868999998,51.6638,8.2944,0.0,0.0,0.0,30.636225000000003,0.0,0.0,0.0,56.655729,2
1559193423123917427,190,1559193423123917427,vrs_gps,0,3,37.40314800333333,127.11092338499999,51.6104,8.2944,0.0,0.0,0.0,30.658369,0.0,0.0,0.0,56.610576,2
1559193424123776252,191,1559193424123776252,vrs_gps,0,3,37.403153161666665,127.110969575,51.3912,8.305924000000001,0.0,0.0,0.0,30.702681000000005,0.0,0.0,0.0,56.610576,2
1559193425123297541,192,1559193425123297541,vrs_gps,0,3,37.403157865000004,127.11102637666666,51.5123,8.317456,0.0,0.0,0.0,30.758116000000005,0.0,0.0,0.0,56.62562500000001,2
1559193426123138865,193,1559193426123138865,vrs_gps,0,3,37.40323884666667,127.1112838,-20.4069,121.61678400000001,0.0,0.0,0.0,12.369289,0.0,0.0,0.0,1954.6125209999998,2
1559193427122884803,194,1559193427122884803,vrs_gps,0,3,37.403244003333334,127.11136145500001,-20.8219,12.432675999999999,0.0,0.0,0.0,166.177881,0.0,0.0,0.0,0.0,2
1559193428122596023,195,1559193428122596023,vrs_gps,0,3,37.40315450833334,127.11122987166667,60.6542,18.386944000000003,0.0,0.0,0.0,10.004568999999998,0.0,0.0,0.0,192.543376,2
1559193429125485625,196,1559193429125485625,vrs_gps,0,3,37.40315583333334,127.11132687,58.5843,18.241441,0.0,0.0,0.0,9.9225,0.0,0.0,0.0,191.020041,2
1559193430123782873,197,1559193430123782873,vrs_gps,0,3,37.403169551666664,127.11142315999999,57.3561,17.280649,0.0,0.0,0.0,6.017208999999999,0.0,0.0,0.0,119.399329,2
1559193431123874637,198,1559193431123874637,vrs_gps,0,3,37.40317454333333,127.11153659833332,52.6247,3.478225,0.0,0.0,0.0,3.7869159999999997,0.0,0.0,0.0,27.040000000000003,2
1559193432128101595,199,1559193432128101595,vrs_gps,0,3,37.403162101666666,127.111644055,50.8858,3.0171690000000004,0.0,0.0,0.0,4.635409,0.0,0.0,0.0,22.202944,2
1559193433128708237,200,1559193433128708237,vrs_gps,0,3,37.40316302833333,127.11172720833335,47.709,2.524921,0.0,0.0,0.0,3.2041,0.0,0.0,0.0,22.043025000000004,2
1559193434125149575,201,1559193434125149575,vrs_gps,0,3,37.403133573333335,127.11182375666667,41.6501,4.223025000000001,0.0,0.0,0.0,6.240004000000001,0.0,0.0,0.0,32.70696100000001,2
1559193435123758790,202,1559193435123758790,vrs_gps,0,3,37.40317482666667,127.11187856333332,50.8039,3.411409,0.0,0.0,0.0,6.305121000000001,0.0,0.0,0.0,42.7716,2
1559193436123815000,203,1559193436123815000,vrs_gps,0,3,37.403173835,127.111941985,50.4537,3.4151040000000004,0.0,0.0,0.0,6.305121000000001,0.0,0.0,0.0,42.758520999999995,2
1559193437123726527,204,1559193437123726527,vrs_gps,0,3,37.403173276666664,127.11199227166665,50.0224,3.4188009999999998,0.0,0.0,0.0,6.315168999999999,0.0,0.0,0.0,42.823935999999996,2
1559193438124012802,205,1559193438124012802,vrs_gps,0,3,37.403173025,127.11203239,49.7299,3.441025,0.0,0.0,0.0,6.3453610000000005,0.0,0.0,0.0,43.046721,2
1559193439124275408,206,1559193439124275408,vrs_gps,0,3,37.403173001666666,127.11206490499998,49.5815,3.4596000000000005,0.0,0.0,0.0,6.380675999999999,0.0,0.0,0.0,43.256929,2
1559193440123704355,207,1559193440123704355,vrs_gps,0,3,37.40317308,127.11208718666667,49.4013,3.478225,0.0,0.0,0.0,6.4160889999999995,0.0,0.0,0.0,43.49402499999999,2
1559193441123440607,208,1559193441123440607,vrs_gps,0,3,37.403173753333334,127.11209604166667,49.4791,3.4894240000000005,0.0,0.0,0.0,6.431296000000001,0.0,0.0,0.0,43.586404,2
1559193442123054589,209,1559193442123054589,vrs_gps,0,3,37.40317371833333,127.11209740833334,49.5404,3.4969000000000006,0.0,0.0,0.0,6.446521000000001,0.0,0.0,0.0,43.678881,2
1559193443123810235,210,1559193443123810235,vrs_gps,0,3,37.40317317666666,127.11210292666668,49.429,3.5043840000000004,0.0,0.0,0.0,6.461763999999999,0.0,0.0,0.0,43.758225,2
1559193444123108607,211,1559193444123108607,vrs_gps,0,3,37.40317306,127.11211188166665,49.3174,3.5193759999999994,0.0,0.0,0.0,6.487209000000001,0.0,0.0,0.0,43.903876000000004,2
1559193445123428968,212,1559193445123428968,vrs_gps,0,3,37.40317219166666,127.11212328333335,49.1187,3.538161,0.0,0.0,0.0,6.517809,0.0,0.0,0.0,44.116164000000005,2
1559193446123630382,213,1559193446123630382,vrs_gps,0,3,37.403172175,127.11212956666668,49.1271,3.545689,0.0,0.0,0.0,6.533136,0.0,0.0,0.0,44.222500000000004,2
1559193447124195832,214,1559193447124195832,vrs_gps,0,3,37.40317182166667,127.11213045666666,49.0563,3.5645439999999997,0.0,0.0,0.0,6.563844,0.0,0.0,0.0,44.408896,2
1559193448123712986,215,1559193448123712986,vrs_gps,0,3,37.403171183333335,127.11213073833332,49.0209,3.5796639999999997,0.0,0.0,0.0,6.589489000000001,0.0,0.0,0.0,44.582328999999994,2
1559193449122937752,216,1559193449122937752,vrs_gps,0,3,37.40317108833334,127.112130575,49.1261,3.591025,0.0,0.0,0.0,6.610041000000001,0.0,0.0,0.0,44.675856,2
1559193450123328451,217,1559193450123328451,vrs_gps,0,3,37.403171228333335,127.11213027000001,49.1935,3.594816,0.0,0.0,0.0,6.615184,0.0,0.0,0.0,44.729344,2
1559193451123335382,218,1559193451123335382,vrs_gps,0,3,37.40317103666666,127.11212990333334,49.261,3.6024039999999995,0.0,0.0,0.0,6.630625000000001,0.0,0.0,0.0,44.796248999999996,2
1559193452123449028,219,1559193452123449028,vrs_gps,0,3,37.403170435,127.11212998833335,49.2105,3.61,0.0,0.0,0.0,6.640929,0.0,0.0,0.0,44.876601,2
1559193453123483634,220,1559193453123483634,vrs_gps,0,3,37.40316950166667,127.11213076333334,48.9812,3.621409,0.0,0.0,0.0,6.666723999999999,0.0,0.0,0.0,45.0241,2
1559193454123930494,221,1559193454123930494,vrs_gps,0,3,37.40316841166667,127.11213152166665,48.7794,3.6366490000000002,0.0,0.0,0.0,6.687396,0.0,0.0,0.0,45.144961,2
1559193455123096979,222,1559193455123096979,vrs_gps,0,3,37.40316784833333,127.11213205666667,48.6736,3.6366490000000002,0.0,0.0,0.0,6.687396,0.0,0.0,0.0,45.171841,2
1559193456123506504,223,1559193456123506504,vrs_gps,0,3,37.40316726333333,127.11213271166667,48.554,3.6404639999999997,0.0,0.0,0.0,6.687396,0.0,0.0,0.0,45.144961,2
1559193457122761818,224,1559193457122761818,vrs_gps,0,3,37.40316680666667,127.11213288666667,48.5157,3.6366490000000002,0.0,0.0,0.0,6.682225,0.0,0.0,0.0,45.104656000000006,2
1559193458127116516,225,1559193458127116516,vrs_gps,0,3,37.403166258333336,127.11213314166667,48.3829,3.6404639999999997,0.0,0.0,0.0,6.687396,0.0,0.0,0.0,45.118089,2
1559193459127551905,226,1559193459127551905,vrs_gps,0,3,37.403166068333334,127.11213350833334,48.231,3.6442810000000003,0.0,0.0,0.0,6.692569000000001,0.0,0.0,0.0,45.131524,2
1559193460124485289,227,1559193460124485289,vrs_gps,0,3,37.40316001,127.11213547833334,47.4774,3.5494559999999997,0.0,0.0,0.0,3.8809,0.0,0.0,0.0,27.447121,2
1559193461123349922,228,1559193461123349922,vrs_gps,0,3,37.40315795,127.11213570166667,47.337,3.5268839999999995,0.0,0.0,0.0,3.8533690000000003,0.0,0.0,0.0,27.258841,2
1559193462123578714,229,1559193462123578714,vrs_gps,0,3,37.40315691333333,127.11213559833335,47.3178,3.515625,0.0,0.0,0.0,3.8415999999999997,0.0,0.0,0.0,27.164944,2
1559193463123334324,230,1559193463123334324,vrs_gps,0,3,37.40315718666667,127.11213533,47.3274,3.508129,0.0,0.0,0.0,3.833764,0.0,0.0,0.0,27.092025,2
1559193464123329926,231,1559193464123329926,vrs_gps,0,3,37.40315833666667,127.11213499333334,47.4066,3.500641,0.0,0.0,0.0,3.8298490000000003,0.0,0.0,0.0,27.050400999999997,2
1559193465122941768,232,1559193465122941768,vrs_gps,0,3,37.403159298333335,127.11213438333334,47.5175,3.4969000000000006,0.0,0.0,0.0,3.825936,0.0,0.0,0.0,27.008809,2
1559193466123732031,233,1559193466123732031,vrs_gps,0,3,37.40315995666666,127.11213401166667,47.5998,3.493161,0.0,0.0,0.0,3.818116,0.0,0.0,0.0,26.956864000000003,2
1559193467122802608,234,1559193467122802608,vrs_gps,0,3,37.40316037833334,127.11213365999998,47.6569,3.493161,0.0,0.0,0.0,3.818116,0.0,0.0,0.0,26.956864000000003,2
1559193468123197990,235,1559193468123197990,vrs_gps,0,3,37.40316032333333,127.11213369833334,47.5758,3.493161,0.0,0.0,0.0,3.8220250000000004,0.0,0.0,0.0,26.967248999999995,2
1559193469123477141,236,1559193469123477141,vrs_gps,0,3,37.40316001666667,127.11213363,47.486,3.4969000000000006,0.0,0.0,0.0,3.825936,0.0,0.0,0.0,26.977636,2
1559193470123495964,237,1559193470123495964,vrs_gps,0,3,37.40315933666667,127.11213375166666,47.403,3.4969000000000006,0.0,0.0,0.0,3.825936,0.0,0.0,0.0,26.988025000000004,2
1559193471123637109,238,1559193471123637109,vrs_gps,0,3,37.403159495,127.11213347666666,47.4469,3.493161,0.0,0.0,0.0,3.8220250000000004,0.0,0.0,0.0,26.946481,2
1559193472123510472,239,1559193472123510472,vrs_gps,0,3,37.40316003,127.11213307166666,47.4777,3.4894240000000005,0.0,0.0,0.0,3.818116,0.0,0.0,0.0,26.915343999999997,2
1559193473123838650,240,1559193473123838650,vrs_gps,0,3,37.403159905,127.11213264499999,47.543,3.493161,0.0,0.0,0.0,3.8220250000000004,0.0,0.0,0.0,26.936100000000003,2
1559193474124151069,241,1559193474124151069,vrs_gps,0,3,37.40315960666667,127.11213222833334,47.5802,3.4969000000000006,0.0,0.0,0.0,3.8298490000000003,0.0,0.0,0.0,26.956864000000003,2
1559193475122754973,242,1559193475122754973,vrs_gps,0,3,37.40315952833334,127.11213193,47.6523,3.4969000000000006,0.0,0.0,0.0,3.8298490000000003,0.0,0.0,0.0,26.956864000000003,2
1559193476123115443,243,1559193476123115443,vrs_gps,0,3,37.403159906666666,127.11213142666665,47.7324,3.4894240000000005,0.0,0.0,0.0,3.8220250000000004,0.0,0.0,0.0,26.904969,2
1559193477123261361,244,1559193477123261361,vrs_gps,0,3,37.403161446666665,127.11213051000001,47.9973,3.493161,0.0,0.0,0.0,3.825936,0.0,0.0,0.0,26.915343999999997,2
1559193478123013111,245,1559193478123013111,vrs_gps,0,3,37.40316987166667,127.11212683333333,49.1869,3.6328359999999997,0.0,0.0,0.0,6.640929,0.0,0.0,0.0,44.582328999999994,2
1559193479122533749,246,1559193479122533749,vrs_gps,0,3,37.40316978333333,127.11212645333332,49.2322,3.6366490000000002,0.0,0.0,0.0,6.651241000000001,0.0,0.0,0.0,44.662489,2
1559193480123327030,247,1559193480123327030,vrs_gps,0,3,37.40316954666666,127.11212600833332,49.2242,3.6481,0.0,0.0,0.0,6.671889000000001,0.0,0.0,0.0,44.7561,2
1559193481123251529,248,1559193481123251529,vrs_gps,0,3,37.403170128333336,127.11212537333334,49.3168,3.6633959999999997,0.0,0.0,0.0,6.692569000000001,0.0,0.0,0.0,44.903400999999995,2
1559193482122223996,249,1559193482122223996,vrs_gps,0,3,37.40317052,127.11212495,49.3294,3.678724,0.0,0.0,0.0,6.723649,0.0,0.0,0.0,45.077796000000006,2
1559193483122007534,250,1559193483122007534,vrs_gps,0,3,37.40317056,127.11212494333334,49.2466,3.6710559999999997,0.0,0.0,0.0,6.702921,0.0,0.0,0.0,44.957025,2
1559193484127269073,251,1559193484127269073,vrs_gps,0,3,37.403170413333335,127.1121248,49.2322,3.6595690000000003,0.0,0.0,0.0,6.682225,0.0,0.0,0.0,44.796248999999996,2
1559193485126873338,252,1559193485126873338,vrs_gps,0,3,37.40317053333333,127.11212440333333,49.2856,3.6481,0.0,0.0,0.0,6.666723999999999,0.0,0.0,0.0,44.662489,2
1559193486122877058,253,1559193486122877058,vrs_gps,0,3,37.40317125166666,127.11212376666666,49.3846,3.6442810000000003,0.0,0.0,0.0,6.6564000000000005,0.0,0.0,0.0,44.582328999999994,2
1559193487122297601,254,1559193487122297601,vrs_gps,0,3,37.40317191333334,127.11212360666666,49.3729,3.6404639999999997,0.0,0.0,0.0,6.640929,0.0,0.0,0.0,44.502241000000005,2
1559193488122808471,255,1559193488122808471,vrs_gps,0,3,37.40317246666667,127.11212357166666,49.3735,3.6328359999999997,0.0,0.0,0.0,6.630625000000001,0.0,0.0,0.0,44.408896,2
1559193489122745387,256,1559193489122745387,vrs_gps,0,3,37.40317311666667,127.11212339333333,49.3926,3.629025,0.0,0.0,0.0,6.620329,0.0,0.0,0.0,44.342281,2
1559193490122361745,257,1559193490122361745,vrs_gps,0,3,37.403173628333334,127.11212297166666,49.4945,3.6252159999999995,0.0,0.0,0.0,6.615184,0.0,0.0,0.0,44.275715999999996,2
1559193491122376678,258,1559193491122376678,vrs_gps,0,3,37.40317437833333,127.11212262666668,49.5842,3.621409,0.0,0.0,0.0,6.610041000000001,0.0,0.0,0.0,44.222500000000004,2
1559193492122563076,259,1559193492122563076,vrs_gps,0,3,37.40317552333333,127.11212212500001,49.7152,3.621409,0.0,0.0,0.0,6.604899999999999,0.0,0.0,0.0,44.195904,2
1559193493122252721,260,1559193493122252721,vrs_gps,0,3,37.403176013333336,127.11212198,49.6841,3.606201,0.0,0.0,0.0,6.579225,0.0,0.0,0.0,43.996689,2
1559193494122696174,261,1559193494122696174,vrs_gps,0,3,37.403176108333334,127.11212229666668,49.5419,3.583449,0.0,0.0,0.0,6.533136,0.0,0.0,0.0,43.6921,2
1559193495123019885,262,1559193495123019885,vrs_gps,0,3,37.403176241666664,127.11212243,49.4595,3.5796639999999997,0.0,0.0,0.0,6.5229159999999995,0.0,0.0,0.0,43.599608999999994,2
1559193496123366484,263,1559193496123366484,vrs_gps,0,3,37.403175948333335,127.11212292500001,49.3359,3.5796639999999997,0.0,0.0,0.0,6.5229159999999995,0.0,0.0,0.0,43.586404,2
1559193497122734187,264,1559193497122734187,vrs_gps,0,3,37.403176073333334,127.11212303333332,49.3015,3.5721,0.0,0.0,0.0,6.507601000000001,0.0,0.0,0.0,43.467649,2
1559193498122246192,265,1559193498122246192,vrs_gps,0,3,37.403176108333334,127.11212331833333,49.2175,3.5645439999999997,0.0,0.0,0.0,6.492304,0.0,0.0,0.0,43.375396,2
1559193499122220741,266,1559193499122220741,vrs_gps,0,3,37.40317586833333,127.11212378500001,49.0888,3.568321,0.0,0.0,0.0,6.497401,0.0,0.0,0.0,43.401744,2
1559193500123946828,267,1559193500123946828,vrs_gps,0,3,37.40317564833333,127.11212411666665,49.0443,3.568321,0.0,0.0,0.0,6.492304,0.0,0.0,0.0,43.349056,2
1559193501122686841,268,1559193501122686841,vrs_gps,0,3,37.403175293333334,127.11212431833334,49.062,3.556996,0.0,0.0,0.0,6.477024999999999,0.0,0.0,0.0,43.230625,2
1559193502122671699,269,1559193502122671699,vrs_gps,0,3,37.403175015,127.11212445499999,49.0194,3.560769,0.0,0.0,0.0,6.477024999999999,0.0,0.0,0.0,43.230625,2
1559193503122854535,270,1559193503122854535,vrs_gps,0,3,37.403174469999996,127.11212438166667,48.9885,3.5721,0.0,0.0,0.0,6.5024999999999995,0.0,0.0,0.0,43.375396,2
1559193504123343784,271,1559193504123343784,vrs_gps,0,3,37.40317466333333,127.11212365166666,48.9867,3.594816,0.0,0.0,0.0,6.533136,0.0,0.0,0.0,43.599608999999994,2
1559193505123155500,272,1559193505123155500,vrs_gps,0,3,37.40317521,127.11212339833334,48.8655,3.629025,0.0,0.0,0.0,6.599761,0.0,0.0,0.0,44.009956,2
1559193506123099121,273,1559193506123099121,vrs_gps,0,3,37.40317566666667,127.11212330000002,48.7412,3.6328359999999997,0.0,0.0,0.0,6.604899999999999,0.0,0.0,0.0,44.023225,2
1559193507124573299,274,1559193507124573299,vrs_gps,0,3,37.40321771666667,127.112123895,79.1385,2.7159039999999997,0.0,0.0,0.0,3.9481690000000005,0.0,0.0,0.0,11.437924,2
1559193508124896333,275,1559193508124896333,vrs_gps,0,3,37.40321898166667,127.11212224833335,78.9454,1.3595559999999998,0.0,0.0,0.0,2.155024,0.0,0.0,0.0,5.654884000000001,2
1559193509123823920,276,1559193509123823920,vrs_gps,0,3,37.403218888333335,127.11212036500001,79.1665,1.7213440000000002,0.0,0.0,0.0,2.725801,0.0,0.0,0.0,7.150276,2
1559193510129323448,277,1559193510129323448,vrs_gps,0,3,37.40321766500001,127.11212001666667,79.2888,1.879641,0.0,0.0,0.0,2.965284,0.0,0.0,0.0,7.717284,2
1559193511128540409,278,1559193511128540409,vrs_gps,0,3,37.40321708166667,127.11211781166666,79.2892,1.8171040000000003,0.0,0.0,0.0,3.041536,0.0,0.0,0.0,8.0089,2
1559193512125055840,279,1559193512125055840,vrs_gps,0,3,37.40321625833334,127.11211698999999,78.9945,1.798281,0.0,0.0,0.0,3.0241210000000005,0.0,0.0,0.0,8.020223999999999,2
1559193513124584659,280,1559193513124584659,vrs_gps,0,3,37.40321487333333,127.11211643666665,78.8897,1.798281,0.0,0.0,0.0,3.010225,0.0,0.0,0.0,7.901720999999999,2
1559193514124977816,281,1559193514124977816,vrs_gps,0,3,37.403213066666666,127.11211687833332,78.6076,1.7635840000000003,0.0,0.0,0.0,2.9549610000000004,0.0,0.0,0.0,7.756225000000001,2
1559193515124590475,282,1559193515124590475,vrs_gps,0,3,37.40321229833333,127.11211706833335,78.4183,1.7213440000000002,0.0,0.0,0.0,2.8832039999999997,0.0,0.0,0.0,7.568001,2
1559193516124596905,283,1559193516124596905,vrs_gps,0,3,37.403211586666664,127.11211712499998,78.3437,1.5901209999999997,0.0,0.0,0.0,2.3012889999999997,0.0,0.0,0.0,7.761796,2
1559193517123722222,284,1559193517123722222,vrs_gps,0,3,37.40321161333333,127.11211714166666,78.3322,1.5901209999999997,0.0,0.0,0.0,2.3043240000000003,0.0,0.0,0.0,7.7673689999999995,2
1559193518124338550,285,1559193518124338550,vrs_gps,0,3,37.403210045,127.11211775833333,77.9391,1.4665210000000002,0.0,0.0,0.0,2.119936,0.0,0.0,0.0,7.1289,2
1559193519124628093,286,1559193519124628093,vrs_gps,0,3,37.40320923,127.112118545,77.6664,1.411344,0.0,0.0,0.0,2.0391839999999997,0.0,0.0,0.0,6.853923999999999,2
1559193520125157585,287,1559193520125157585,vrs_gps,0,3,37.40320853666666,127.11211932666666,77.3607,1.3479210000000001,0.0,0.0,0.0,2.088025,0.0,0.0,0.0,6.5024999999999995,2
1559193521124214772,288,1559193521124214772,vrs_gps,0,3,37.403207228333336,127.112120305,77.1118,1.3642239999999999,0.0,0.0,0.0,2.2831209999999995,0.0,0.0,0.0,5.982916000000001,2
1559193522124510249,289,1559193522124510249,vrs_gps,0,3,37.403206,127.11212119166666,76.7917,1.256641,0.0,0.0,0.0,1.9488159999999997,0.0,0.0,0.0,6.071296,2
1559193523125042646,290,1559193523125042646,vrs_gps,0,3,37.40320532,127.11212226666666,76.4754,1.2950439999999999,0.0,0.0,0.0,1.841449,0.0,0.0,0.0,5.793649,2
1559193524123988202,291,1559193524123988202,vrs_gps,0,3,37.403203921666666,127.11212305666668,76.1538,1.238769,0.0,0.0,0.0,2.152089,0.0,0.0,0.0,5.234943999999999,2
1559193525123742645,292,1559193525123742645,vrs_gps,0,3,37.403202135,127.11212403666666,75.8149,1.1946489999999998,0.0,0.0,0.0,2.079364,0.0,0.0,0.0,5.049009,2
1559193526124383027,293,1559193526124383027,vrs_gps,0,3,37.40320087333334,127.11212498666667,75.4864,1.1534760000000002,0.0,0.0,0.0,2.007889,0.0,0.0,0.0,4.8752640000000005,2
1559193527124579453,294,1559193527124579453,vrs_gps,0,3,37.40319952833333,127.11212604333332,75.1717,1.0920249999999998,0.0,0.0,0.0,1.957201,0.0,0.0,0.0,4.721929,2
1559193528124315151,295,1559193528124315151,vrs_gps,0,3,37.403198184999994,127.11212729833332,74.8245,1.069156,0.0,0.0,0.0,1.863225,0.0,0.0,0.0,4.562496,2
1559193529123953895,296,1559193529123953895,vrs_gps,0,3,37.40319658166666,127.11212834333334,74.5743,1.0180809999999998,0.0,0.0,0.0,1.708249,0.0,0.0,0.0,4.507129000000001,2
1559193530124286409,297,1559193530124286409,vrs_gps,0,3,37.40319554333333,127.11212907666668,74.3083,0.9409,0.0,0.0,0.0,1.7030249999999998,0.0,0.0,0.0,4.359744,2
1559193531124330762,298,1559193531124330762,vrs_gps,0,3,37.40319414666667,127.11212994333333,74.0742,0.9101159999999999,0.0,0.0,0.0,1.542564,0.0,0.0,0.0,4.318083999999999,2
1559193532123776078,299,1559193532123776078,vrs_gps,0,3,37.40319316666667,127.11213055333334,73.866,0.8835999999999999,0.0,0.0,0.0,1.498176,0.0,0.0,0.0,4.1616,2
1559193533124184273,300,1559193533124184273,vrs_gps,0,3,37.403191541666665,127.11213158500001,73.5289,0.7779240000000001,0.0,0.0,0.0,1.444804,0.0,0.0,0.0,4.084441,2
1559193534124753815,301,1559193534124753815,vrs_gps,0,3,37.403191955000004,127.11213115500001,73.5709,0.7516889999999999,0.0,0.0,0.0,1.547536,0.0,0.0,0.0,3.8769610000000005,2
1559193535130015372,302,1559193535130015372,vrs_gps,0,3,37.40319231666667,127.112130855,73.6276,0.729316,0.0,0.0,0.0,1.7689000000000001,0.0,0.0,0.0,3.5268839999999995,2
1559193536128744697,303,1559193536128744697,vrs_gps,0,3,37.403192335,127.112130815,73.62,0.7310249999999999,0.0,0.0,0.0,1.7689000000000001,0.0,0.0,0.0,3.530641,2
1559193537128352144,304,1559193537128352144,vrs_gps,0,3,37.40321197,127.112115955,75.3806,2.2350250000000003,0.0,0.0,0.0,3.5118760000000004,0.0,0.0,0.0,11.553201,2
1559193538125155050,305,1559193538125155050,vrs_gps,0,3,37.40321326833334,127.11211644666668,74.8373,1.2409960000000002,0.0,0.0,0.0,2.1904,0.0,0.0,0.0,5.621641,2
1559193539124780253,306,1559193539124780253,vrs_gps,0,3,37.40321289166666,127.11211675000001,74.9557,1.4520250000000001,0.0,0.0,0.0,2.286144,0.0,0.0,0.0,7.513081000000001,2
1559193540123520632,307,1559193540123520632,vrs_gps,0,3,37.40321399833333,127.11211695666667,74.9806,1.582564,0.0,0.0,0.0,2.405601,0.0,0.0,0.0,7.980625000000001,2
1559193541124038716,308,1559193541124038716,vrs_gps,0,3,37.40321359833333,127.11211991999998,74.8032,1.708249,0.0,0.0,0.0,3.013696,0.0,0.0,0.0,7.728399999999999,2
1559193542124160955,309,1559193542124160955,vrs_gps,0,3,37.40321258166667,127.11212866166667,74.7056,1.6770249999999998,0.0,0.0,0.0,2.5153960000000004,0.0,0.0,0.0,8.254129,2
1559193543123946800,310,1559193543123946800,vrs_gps,0,3,37.40320969166667,127.11214415499998,74.6415,1.792921,0.0,0.0,0.0,2.650384,0.0,0.0,0.0,7.997583999999999,2
1559193544124060799,311,1559193544124060799,vrs_gps,0,3,37.40320968833333,127.11216392,74.6056,1.7956000000000003,0.0,0.0,0.0,2.650384,0.0,0.0,0.0,8.003241000000001,2
1559193545126169363,312,1559193545126169363,vrs_gps,0,3,37.403209653333334,127.11219135666667,74.5811,1.7956000000000003,0.0,0.0,0.0,2.653641,0.0,0.0,0.0,8.003241000000001,2
1559193546124751667,313,1559193546124751667,vrs_gps,0,3,37.403209618333335,127.11222856666667,74.5176,1.792921,0.0,0.0,0.0,2.650384,0.0,0.0,0.0,8.014561,2
1559193547125241125,314,1559193547125241125,vrs_gps,0,3,37.40321000833333,127.112276655,74.464,1.7956000000000003,0.0,0.0,0.0,2.653641,0.0,0.0,0.0,8.014561,2
1559193548122971619,315,1559193548122971619,vrs_gps,0,3,37.403210173333335,127.11233431166666,74.4169,1.7956000000000003,0.0,0.0,0.0,2.653641,0.0,0.0,0.0,8.020223999999999,2
1559193549123226197,316,1559193549123226197,vrs_gps,0,3,37.40321033666667,127.11239966166667,74.3825,1.7956000000000003,0.0,0.0,0.0,2.653641,0.0,0.0,0.0,8.025889000000001,2
1559193550123086743,317,1559193550123086743,vrs_gps,0,3,37.40321049,127.11247159000001,74.3396,1.7956000000000003,0.0,0.0,0.0,2.653641,0.0,0.0,0.0,8.025889000000001,2
1559193551122579341,318,1559193551122579341,vrs_gps,0,3,37.40321080333333,127.11254647,74.3544,1.7956000000000003,0.0,0.0,0.0,2.6569,0.0,0.0,0.0,8.031556,2
1559193552123519265,319,1559193552123519265,vrs_gps,0,3,37.40321026833333,127.11262380333334,74.3523,1.7956000000000003,0.0,0.0,0.0,2.6569,0.0,0.0,0.0,8.037225,2
1559193553123377745,320,1559193553123377745,vrs_gps,0,3,37.403209745000005,127.11270283333333,74.3412,1.7956000000000003,0.0,0.0,0.0,2.6569,0.0,0.0,0.0,8.042895999999999,2
1559193554122803990,321,1559193554122803990,vrs_gps,0,3,37.403209671666666,127.11278455166666,74.4711,1.7956000000000003,0.0,0.0,0.0,2.660161,0.0,0.0,0.0,8.042895999999999,2
1559193555122789632,322,1559193555122789632,vrs_gps,0,3,37.40320894666667,127.11286880499999,74.5518,1.7956000000000003,0.0,0.0,0.0,2.660161,0.0,0.0,0.0,8.048569,2
1559193556121065686,323,1559193556121065686,vrs_gps,0,3,37.403191838333335,127.11293259666667,60.2183,39.300361,0.0,0.0,0.0,10.439361,0.0,0.0,0.0,491.42022399999996,2
1559193557120434909,324,1559193557120434909,vrs_gps,0,3,37.40319194666667,127.11302234333334,62.1397,37.380995999999996,0.0,0.0,0.0,9.935104,0.0,0.0,0.0,467.42440000000005,2
1559193558119959342,325,1559193558119959342,vrs_gps,0,3,37.40333991666667,127.11357832,2.7747,270.799936,0.0,0.0,0.0,63.600624999999994,0.0,0.0,0.0,1442.7842560000001,2
1559193559119898224,326,1559193559119898224,vrs_gps,0,3,37.403343273333334,127.11368816999999,2.7625,271.5904,0.0,0.0,0.0,63.664441000000004,0.0,0.0,0.0,1441.8727840000001,2
1559193560119855489,327,1559193560119855489,vrs_gps,0,3,37.403349285,127.11380258,3.072,272.349009,0.0,0.0,0.0,63.728289,0.0,0.0,0.0,1441.037521,2
1559193561120237556,328,1559193561120237556,vrs_gps,0,3,37.40335864666667,127.11391841166666,2.0877,272.349009,0.0,0.0,0.0,63.728289,0.0,0.0,0.0,1441.037521,2
1559193562121666847,329,1559193562121666847,vrs_gps,0,3,37.403375624999995,127.11404200166665,3.51,273.90250000000003,0.0,0.0,0.0,63.856080999999996,0.0,0.0,0.0,1439.367721,2
1559193563120256467,330,1559193563120256467,vrs_gps,0,3,37.403371195,127.11412909166665,-16.4811,262.40760100000006,0.0,0.0,0.0,41.563809,0.0,0.0,0.0,768.287524,2
1559193564119601545,331,1559193564119601545,vrs_gps,0,3,37.403395225000004,127.11425110333333,-15.9059,263.15328400000004,0.0,0.0,0.0,41.705764,0.0,0.0,0.0,770.340025,2
1559193565119704160,332,1559193565119704160,vrs_gps,0,3,37.40342217166666,127.11437276833334,-15.1429,263.93251599999996,0.0,0.0,0.0,41.847961000000005,0.0,0.0,0.0,772.3952640000001,2
1559193566119709740,333,1559193566119709740,vrs_gps,0,3,37.40345180166666,127.11449328166667,-14.7499,264.68036099999995,0.0,0.0,0.0,41.99040000000001,0.0,0.0,0.0,774.453241,2
1559193567113860383,334,1559193567113860383,vrs_gps,0,3,37.40345180166666,127.11449328166667,-14.7499,264.68036099999995,0.0,0.0,0.0,41.99040000000001,0.0,0.0,0.0,774.453241,2
1559193568120042818,335,1559193568120042818,vrs_gps,0,3,37.40338482666667,127.11428138333333,46.8024,35.450115999999994,0.0,0.0,0.0,8.037225,0.0,0.0,0.0,199.233225,2
1559193569114492049,336,1559193569114492049,vrs_gps,0,3,37.40338482666667,127.11428138333333,46.8024,35.450115999999994,0.0,0.0,0.0,8.037225,0.0,0.0,0.0,199.233225,2
1559193570120676987,337,1559193570120676987,vrs_gps,0,3,37.403454096666664,127.11447526833332,47.1902,34.28102500000001,0.0,0.0,0.0,7.789681,0.0,0.0,0.0,192.682161,2
1559193571114115131,338,1559193571114115131,vrs_gps,0,3,37.403454096666664,127.11447526833332,47.1902,34.28102500000001,0.0,0.0,0.0,7.789681,0.0,0.0,0.0,192.682161,2
1559193572114598176,339,1559193572114598176,vrs_gps,0,3,37.403454096666664,127.11447526833332,47.1902,34.28102500000001,0.0,0.0,0.0,7.789681,0.0,0.0,0.0,192.682161,2
1559193573114097691,340,1559193573114097691,vrs_gps,0,3,37.403454096666664,127.11447526833332,47.1902,34.28102500000001,0.0,0.0,0.0,7.789681,0.0,0.0,0.0,192.682161,2
1559193574120106044,341,1559193574120106044,vrs_gps,0,3,37.403553771666665,127.11471418166666,44.9715,32.867289,0.0,0.0,0.0,7.491169,0.0,0.0,0.0,184.6881,2
1559193575119917694,342,1559193575119917694,vrs_gps,0,3,37.40357311,127.11475615166667,44.6557,32.455809,0.0,0.0,0.0,7.403841000000001,0.0,0.0,0.0,182.331009,2
1559193576120266591,343,1559193576120266591,vrs_gps,0,3,37.40359004833333,127.11479243666666,43.8752,32.455809,0.0,0.0,0.0,7.4092839999999995,0.0,0.0,0.0,182.331009,2
1559193577120524553,344,1559193577120524553,vrs_gps,0,3,37.40360371166666,127.11482212666667,42.9827,33.074001,0.0,0.0,0.0,7.5570010000000005,0.0,0.0,0.0,185.804161,2
1559193578120377665,345,1559193578120377665,vrs_gps,0,3,37.40361232833333,127.11484374000001,38.8085,34.703881,0.0,0.0,0.0,7.935489000000001,0.0,0.0,0.0,194.937444,2
1559193579119958910,346,1559193579119958910,vrs_gps,0,3,37.403621055,127.11485976166665,39.8295,33.66320399999999,0.0,0.0,0.0,7.706175999999999,0.0,0.0,0.0,189.11750400000003,2
1559193580119938660,347,1559193580119938660,vrs_gps,0,3,37.40362652333333,127.11486851,41.3861,33.570435999999994,0.0,0.0,0.0,7.689529000000001,0.0,0.0,0.0,188.56782399999997,2
1559193581119867892,348,1559193581119867892,vrs_gps,0,3,37.403633711666664,127.11488303,41.8288,33.281361000000004,0.0,0.0,0.0,7.628644,0.0,0.0,0.0,186.950929,2
1559193582120105198,349,1559193582120105198,vrs_gps,0,3,37.403642588333334,127.11490195166668,42.0529,33.605208999999995,0.0,0.0,0.0,7.711729000000001,0.0,0.0,0.0,188.732644,2
1559193583120269443,350,1559193583120269443,vrs_gps,0,3,37.40364970666667,127.11491717166668,42.3144,33.4084,0.0,0.0,0.0,7.6729,0.0,0.0,0.0,187.662601,2
1559193584120163544,351,1559193584120163544,vrs_gps,0,3,37.4036552,127.11492918500001,42.4681,33.051001,0.0,0.0,0.0,7.595535999999999,0.0,0.0,0.0,185.640625,2
1559193585119746295,352,1559193585119746295,vrs_gps,0,3,37.403658021666665,127.11493491166667,42.6812,32.239684,0.0,0.0,0.0,7.420176000000001,0.0,0.0,0.0,181.09084900000002,2
